{;lon;lat;id;tags{;name;ref:vatin;addr:postcode;addr:city;start_date;addr:street;addr:housenumber;};}
;7.68671719343681;45.065215435737798;1;;San Francesco Da Paola;IT03603780010;_10123;Torino;01/01/2005;Via San Francesco Da Paola;_10;;
;7.60284957264712;45.003342205568003;2;;Algostino Demichelis Di Gallo Dott. Mario;IT10170320013;_10123;Torino;01/02/2015;Piazza Vittorio Veneto;_10;;
;7.67394938429084;45.076208320591498;3;;Ferrero;IT10491430012;_10122;Torino;01/05/2011;Via del Carmine;_1;;
;7.97475968827803;45.457594572743602;4;;Internazionale;IT11090630010;_10123;Torino;01/07/2017;Via Carlo Alberto;_24;;
;7.68017677414661;45.0716748545467;5;;Collegiata Santa Maria Snc Del Dr. Balagna Agostino E Figli;IT09485870019;_10122;Torino;01/09/2010;Via San Francesco D`Assisi;_14;;
;6.69700785;45.0768757;6;;Del Conservatorio Snc Dei Dr.i Vecco G., Amoretti A. E Capello C.;IT11104390015;_10123;Torino;01/07/2017;Via Giuseppe Mazzini;_24;;
;7.60284957264712;45.003342205568003;7;;Operti;IT00768850018;_10124;Torino;01/01/2005;Piazza Vittorio Veneto;_11;;
;7.6859719;45.0709201;8;;Carlo Felice;IT09317390012;_10123;Torino;01/09/2010;Piazza C. Felice;_63;;
;7.68636936789709;45.060044124840502;9;;Del Monumento;IT03746910011;_10121;Torino;01/04/2013;Corso Vittorio Emanuele II;_84;;
;7.67936230208308;45.075597070827598;10;;Della Consolata;IT08872550010;_10122;Torino;01/09/2010;Via delle Orfane;_25;;
;7.68187909649041;45.069233684692698;11;;Regia Farmacia Di Monchiero Luca & C. S.a.s.;IT11804940010;_10100;Torino;01/04/2018;Via Xx Settembre;_87;;
;7.66685123166935;45.068174227381903;12;;Montanaro Di Guerrini Dott. Giulia;IT11038230014;_10121;Torino;01/07/2017;Corso Vinzaglio;_31/E;;
;7.68636936789709;45.060044124840502;13;;Boniscontro;IT05230100017;_10121;Torino;01/01/2005;Corso Vittorio Emanuele II;_66;;
;7.69541631702841;45.064786815249697;14;;Universita' Giorda;IT10041330019;_10124;Torino;01/10/2009;Via Po;_14;;
;7.69541631702841;45.064786815249697;15;;Degli Stemmi Di Maranzana Dott.ssa Claudia;IT11552520014;_10124;Torino;01/07/2017;Via Po;_31/B;;
;7.67614813764086;45.070758415414602;16;;Santa Barbara;IT11553910016;_10122;Torino;01/07/2017;Via Cernaia;_24;;
;7.6859719;45.0709201;17;;Ordine Mauriziano Sas Della Dott.ssa Carboncini Alessandra & C.;IT10285940010;_10122;Torino;01/02/2015;Galleria Umberto I;_54;;
;7.67614813764086;45.070758415414602;18;;Pensa;IT05901920016;_10122;Torino;01/01/2005;Via Cernaia;_14;;
;7.53106340038547;44.930433244759001;19;;Centrale Di Impresa Sas Della Dr.ssa Bruzzone Patrizia E C.;IT10050900017;_10121;Torino;01/02/2015;Via Roma;_24;;
;7.6924350538519;45.060755360375502;20;;Della Rocca;IT06424140017;_10123;Torino;01/01/2005;Via dei Mille;_48;;
;7.58182651903797;45.064199059157801;21;;San Carlo;IT06694230019;_10123;Torino;01/01/2005;Via Giovanni Giolitti;_2;;
;7.68576945156105;45.067386229750703;22;;Regia Farmacia Masino;IT06810590015;_10123;Torino;01/01/2005;Via Maria Vittoria;_3;;
;7.22191658154474;44.820621919014997;23;;Antica Farmacia Bosio Di Spirito Dr.ssa Giovanna;IT09722390011;_10122;Torino;01/01/2011;Via Giuseppe Garibaldi;_26;;
;7.68636936789709;45.060044124840502;24;;Anedda Di Caracristi Dr.ssa Paola;IT10501460017;_10123;Torino;01/05/2011;Corso Vittorio Emanuele II;_34;;
;7.78412290763879;45.146923847213003;25;;Anglesio;IT07328630012;_10122;Torino;01/01/2005;Via Milano;_11;;
;7.58182651903797;45.064199059157801;26;;Madonna Degli Angeli Di Bobba Paola;IT10227830014;_10123;Torino;01/09/2010;Via Giovanni Giolitti;_7/C;;
;7.6859719;45.0709201;27;;Solferino Snc Della Dott.ssa Ricotti Anna E C.;IT11568670019;_10121;Torino;01/07/2017;Via S. Teresa;_21;;
;7.68187909649041;45.069233684692698;28;;Comunale 42 - Afc;IT09971950010;_10121;Torino;01/08/2010;Via XX Settembre;_5;;
;7.66903548103441;45.076693316502002;29;;Comunale 43 - Afc;IT09971950010;_10122;Torino;01/11/2016;Piazza Statuto;_4;;
;7.69541631702841;45.064786815249697;30;;Po;IT07805510018;_10123;Torino;01/01/2005;Via Po;_4;;
;7.51279685184017;45.027019697462499;31;;Mamone Sas Della Dott.ssa Mamone Luciana E C.;IT11338690016;_10121;Torino;01/07/2017;Via Bellini;_8;;
;7.66903548103441;45.076693316502002;32;;Almasio Snc Dei Dott.ri Chiassa Paola E Quaini Francesco;IT08073470018;_10122;Torino;01/03/2013;Piazza Statuto;_3;;
;6.69700785;45.0768757;33;;Europea Della Dr.ssa Audiberti Emanuela;IT11482900013;_10123;Torino;01/07/2017;Via Giuseppe Mazzini;_40;;
;7.69541631702841;45.064786815249697;34;;Berta Di Collegiata Snc Dei Dr.i Federica Bianchi E Gaia Bagnasacco;IT10396180019;_10124;Torino;01/03/2011;Via Po;_51;;
;7.68079016350882;45.069542601250902;35;;San Simone Del Dott. Pedulla' Mauro;IT11180860014;_10122;Torino;01/07/2017;Via San Tommaso;_2/A;;
;7.6859719;45.0709201;36;;Gruner S.a.s. Del Dr. Timeus Marco & C.;IT09942490013;_10121;Torino;01/09/2010;Via San Tommaso;_16;;
;7.66173175625908;45.018047340282401;37;;I Portici Di A.l.m. Sas Del Dr. Lorenzetti Paolo E C.;IT11181590016;_10125;Torino;01/07/2017;Via Nizza;_15;;
;7.68359135500964;45.058709225098802;38;;San Salvario Della Dott.ssa Boglietti Piera E C.;IT00510870017;_10125;Torino;01/03/2013;Via Madama Cristina;_14;;
;7.67913285582087;45.052374903181601;39;;Santa Matilde Di Richiardi Dr.ssa Cristina;IT10194520010;_10126;Torino;01/03/2010;Via Madama Cristina;_78;;
;7.67896;45.062683;40;;Comunale 25 - Afc;IT09971950010;_10125;Torino;01/08/2010;c/o FF. SS. - Porta Nuova;_;;
;7.66173175625908;45.018047340282401;41;;Gani Snc Di Gani Grazia E Dallosta Roberto;IT09368300019;_10126;Torino;01/01/2008;Via Nizza;_108;;
;7.66173175625908;45.018047340282401;42;;Sacro Cuore Snc Dei Dott.ri Ferrato Adolfo E Cravini Stefania Maria;IT10005770010;_10126;Torino;01/09/2009;Via Nizza;_115;;
;7.66173175625908;45.018047340282401;43;;Nizza;IT06372790011;_10125;Torino;01/01/2005;Via Nizza;_65;;
;7.68071955307557;45.049345352019103;44;;Torino Esposizioni Di Albertini Dott.ssa F. E Robba Dott.ssa M. Snc;IT06424110010;_10126;Torino;01/01/2008;Corso Massimo D`Azeglio;_100;;
;7.3326621;44.87723385;45;;Del Corso Della Dott.ssa Barake Karen;IT09542330015;_10125;Torino;01/07/2017;Corso Vittorio Emanuele II;_4;;
;7.66173175625908;45.018047340282401;46;;San Salvatore;IT06757040016;_10125;Torino;01/01/2005;Via Nizza;_27;;
;7.67086837625355;45.047752474475502;47;;Dante;IT07141030010;_10126;Torino;01/01/2005;Corso Dante;_78;;
;7.67913285582087;45.052374903181601;48;;Borgarelli Dei Dott.ri G. E P. Borgarelli Snc;IT07852990014;_10125;Torino;01/01/2008;Via Madama Cristina;_62;;
;7.68242703100911;45.0586002563752;49;;Cavallo Snc Dei Dr.i Guzzinati Mauro E Cavallo Silvia;IT11434650013;_10125;Torino;01/07/2017;Via Claudio Luigi Berthollet;_10;;
;7.67913285582087;45.052374903181601;50;;Portis;IT00551200017;_10125;Torino;01/01/2005;Via Madama Cristina;_37;;
;7.66968094120049;45.052817035104603;51;;Mauriziana Di Gsg Di Ielo Stefania E C.;IT10285940010;_10128;Torino;01/03/2013;Corso Filippo Turati;_38/c;;
;7.65983713178448;45.055855422458897;52;;Borgo Crocetta;IT04750620017;_10129;Torino;01/01/2005;Corso Alcide De Gasperi;_6;;
;7.67760957745872;45.062978823727804;53;;Picco Tavano;IT02138360066;_10128;Torino;01/09/2010;Via Paolo Sacchi;_46;;
;7.87513326575747;45.035343542136303;54;;Sant'antonio;IT04838730010;_10128;Torino;01/01/2005;Corso Vittorio Emanuele;_121;;
;7.65983713178448;45.055855422458897;55;;Maria Cristina Sas Del Dr. Pautasso Renato E C;IT10313740010;_10129;Torino;01/08/2010;Corso Alcide De Gasperi;_69;;
;7.6697114;45.0564781;56;;Sant'anna Snc Di Ferrato Adolfo, Becucci Alessandra E Ferrato Paola;IT11050450011;_10128;Torino;01/07/2017;Corso Germano Sommelier;_31;;
;7.66360478243208;45.065315600547699;57;;Leva Snc Di Calliero Paolo E Formiglia Mauro;IT09858330013;_10128;Torino;01/02/2016;Corso Stati Uniti;_5;;
;7.65866071520534;45.056560697749099;58;;Daniele;IT05810710011;_10129;Torino;01/01/2005;Corso Duca degli Abruzzi;_66;;
;7.49433400791429;45.160631279708397;59;;San Secondo;IT01167810058;_10128;Torino;01/01/2008;Via San Secondo;_9;;
;7.67221379367731;45.062403425519399;60;;Re Umberto Snc Delle Dott.sse Pagliero P. E Rosa M. V.;IT07493500016;_10128;Torino;01/01/2008;Corso Re Umberto;_38;;
;7.6859719;45.0709201;61;;Galileo Farmabivi Snc Di Bigliani L. E Vico M.;IT05167390011;_10128;Torino;01/04/2007;Largo Umberto 114/A;_;;
;7.67760957745872;45.062978823727804;62;;Porta Nuova;IT08210640010;_10128;Torino;01/01/2005;Via Paolo Sacchi;_4;;
;7.49433400791429;45.160631279708397;63;;Del Leone;IT08334970012;_10128;Torino;01/01/2005;Via San Secondo;_46;;
;7.58458481682612;45.069117539470199;64;;Magno Francone Roberta;IT08337030012;_10129;Torino;01/01/2005;Via Cristoforo Colombo;_42;;
;7.66173175625908;45.018047340282401;65;;Delle Molinette;IT09687190018;_10126;Torino;01/09/2010;Via Nizza;_183;;
;7.66173175625908;45.018047340282401;66;;Lingotto Cocirio Davide;IT07813090011;_10127;Torino;01/01/2005;Via Nizza;_354;;
;7.54189669814742;45.002804037387797;67;;Santa Gemma Di Farmapiu' Torino Sas Della Dr.ssa Calatroni Daniela;IT10123670019;_10126;Torino;01/03/2013;Via Genova;_89/H;;
;7.67126065;45.03738245;68;;Comunale 46 Afc;IT00529840019;_10126;Torino;01/04/2007;Piazza Camillo Bozzolo;_11;;
;7.44171859234046;45.0264607173415;69;;San Giacomo Sas Del Dr. Bonino Filippo E C.;IT10193850012;_10126;Torino;01/03/2010;Via Genova;_122;;
;7.54189669814742;45.002804037387797;70;;Farmacia Millefonti S.n.c.;IT11758040015;_10126;Torino;01/04/2018;Via Nizza 249;_;;
;7.66173175625908;45.018047340282401;71;;Tetti Fre';IT07266060016;_10126;Torino;01/01/2005;Via Nizza;_214;;
;7.6859719;45.0709201;72;;San Dario;IT07646770011;_10127;Torino;01/01/2005;Via Genova;_179/F;;
;7.65661162206755;45.019746327927599;73;;Santa Rosalia;IT08194730019;_10127;Torino;01/01/2005;Corso Maroncelli;_28;;
;7.64605606129843;45.023415416499603;74;;Comunale 8 - Afc;IT09971950010;_10135;Torino;01/09/2010;Corso Traiano;_22/E;;
;7.64605606129843;45.023415416499603;75;;Comunale 15 - Afc;IT07535100015;_10135;Torino;01/04/2007;Corso Traiano;_86;;
;7.65184905;45.03098655;76;;Comunale 28 - Afc;IT07034700018;_10134;Torino;01/04/2007;Corso Corsica;_9;;
;7.6483492;45.0181037;77;;Mdr S.n.c. Di Manenti A. E Arietti V.;IT11531900014;_10127;Torino;01/07/2017;Via Pio VII;_164/c;;
;7.65670043956929;45.0234245786123;78;;Ghezzo;IT09253670013;_10127;Torino;01/01/2008;Via Passo Buole;_59/H;;
;7.64605606129843;45.023415416499603;79;;Baggio Roba;IT00581160017;_10135;Torino;01/01/2005;Corso Traiano;_73;;
;7.62872698029852;45.017106191791001;80;;Gualdi;IT00546000019;_10134;Torino;01/01/2005;Corso Unione Sovietica;_85;;
;7.62872698029852;45.017106191791001;81;;Steffanone;IT00510850019;_10135;Torino;01/01/2005;Corso Unione Sovietica;_397;;
;7.653858;45.0339286;82;;Mdr S.n.c. Di Manenti A. E Arietti V.;IT11531900014;_10134;Torino;01/07/2017;Piazza Tancredi Galimberti;_7;;
;7.6859719;45.0709201;83;;Monviso;IT04747790014;_10134;Torino;01/01/2005;Corso Eusebio Giambone;_19;;
;7.65588346041373;45.037361396995401;84;;Gay;IT05905250014;_10134;Torino;01/01/2005;Via Tunisi;_99;;
;7.64605606129843;45.023415416499603;85;;Monari Snc Di Francesca E Maria Giovanna Monari;IT03106620010;_10127;Torino;01/02/2015;Corso Traiano;_158;;
;7.65588346041373;45.037361396995401;86;;Gussoni;IT07342040016;_10134;Torino;01/01/2005;Via Tunisi;_51;;
;7.65670043956929;45.0234245786123;87;;Guarino;IT07472010011;_10135;Torino;01/01/2005;Via Passo Buole;_160/A;;
;7.65165326639563;45.035965952436598;88;;Sant'eraldo Snc Di Migliari Cristina E Savio Mattia;IT09817810014;_10134;Torino;01/06/2008;Via Arnaldo Da Brescia;_25;;
;7.6859719;45.0709201;89;;Giardini Guala Sas Di Tuninetti Dott. Michele;IT09729590019;_10135;Torino;01/05/2016;Via Onorato Vigliani;_55/G;;
;7.65165326639563;45.035965952436598;90;;Farm Del Giglio Di Dr.ssa Coggi Paola Maria;IT11567180010;_10134;Torino;01/07/2017;Via Arnaldo Da Brescia;_38;;
;7.6945583586667;45.057257842930397;91;;Borgo Crimea;IT00552630014;_10133;Torino;01/01/2005;Corso Fiume;_4;;
;7.69860416694308;45.062410154982899;92;;Gran Madre;IT09578480015;_10131;Torino;01/09/2010;Piazza Gran Madre di Dio;_1;;
;7.69771693498544;45.062052114943498;93;;Antoniotti;IT-;_10133;Torino;01/09/2011;Corso Moncalieri;_59;;
;7.70361443143684;45.062918038639999;94;;Borgo Po Della Dott.ssa Boasso Lorena;IT03582290049;_10131;Torino;01/07/2017;Via Monferrato 22E;_;;
;7.69771693498544;45.062052114943498;95;;Pilonetto Sas Del Dott. Bellardone Alberto E C.;IT11224200011;_10133;Torino;01/07/2017;Corso Moncalieri;_257;;
;7.6859719;45.0709201;96;;Cavoretto Snc Delle Dr.sse Carla E Paola Giovanna Maria Piacentino;IT11520010015;_10133;Torino;01/07/2017;Piazza Freguglia;_6;;
;7.6120918;45.02008925;97;;Comunale 13 - Afc;IT00246650014;_10135;Torino;01/07/2017;Via Celeste Negarville;_8/10;;
;7.6859719;45.0709201;98;;Comunale 40 - Afc;IT07019070015;_10135;Torino;01/04/2007;Via Arturo Farinelli;_36/9;;
;7.6859719;45.0709201;99;;San Domenico;IT03015430014;_10135;Torino;01/12/2016;Corso Unione Sovietica;_585;;
;7.62872698029852;45.017106191791001;100;;Ottone;IT05455020015;_10135;Torino;01/01/2005;Corso Unione Sovietica;_491;;
;7.62506761992525;45.021685487101003;101;;Roatis;IT06031100016;_10135;Torino;01/07/2017;Via Pramollo;_6;;
;7.6491634;45.01576245;102;;Sennacheribbo Di Sennacheribbo Luisa E Claudia Snc;IT06377940017;_10127;Torino;01/01/2005;Via Candiolo;_31;;
;7.64583309641007;45.0180524021835;103;;Vigliani;IT07933620010;_10127;Torino;01/01/2005;Via Onorato Vigliani;_160;;
;7.62850395;45.0642348;104;;Busatti Borgo San Paolo Sas Di Garrone Dott.ssa Luisa & C.;IT08268160010;_10141;Torino;01/09/2010;Via Monginevro;_57;;
;7.65565770608373;45.052172146290197;105;;Mazzoli;IT02099440014;_10129;Torino;01/03/2013;Corso Rosselli;_106/D;;
;7.52328791721825;45.036445882682997;106;;Delle Erbe Di Farmapiu' Torino Sas Della Dr.ssa Calatroni Daniela;IT10123670019;_10141;Torino;01/03/2013;Via Rivalta;_56/d;;
;7.64568899481472;45.068584504895902;107;;Bullio Dranzon;IT04778500019;_10141;Torino;01/02/2015;Corso Racconigi;_186;;
;7.62850395;45.0642348;108;;Gillone;IT06663770011;_10141;Torino;01/01/2005;Via Monginevro;_105;;
;7.63535975;45.06181775;109;;Sant'emilio Di Bruna Rosso D. E Vallenzasca L. Snc;IT00545960015;_10141;Torino;01/04/2007;Via Vincenzo Lancia;_11/D;;
;7.64922969806899;45.0602350515042;110;;San Bernardino Snc Del Dott. Paschetta S. & C.;IT07393720011;_10141;Torino;01/09/2010;Via Paolo Braccini;_101;;
;7.56143744983942;45.104263373398801;111;;Borgo San Paolo;IT05819520015;_10141;Torino;01/04/2007;Via San Paolo;_49/A;;
;7.6221131;45.07469625;112;;Frejus Del Dott. Ravazzini Rento;IT10628080011;_10138;Torino;01/07/2017;Corso Francia;_35;;
;7.6859719;45.0709201;113;;Comunale 17 - Afc;IT07019070015;_10138;Torino;01/01/2005;Corso Vittorio Emanuele II;_182/bis/C;;
;7.6859719;45.0709201;114;;Bernardi;IT04315880015;_10138;Torino;01/01/2005;Via Duchessa Jolanda;_15/bis/E;;
;7.5125811405649;45.080091573371803;115;;Dell'erica Sas Del Dott. Fachinetti Albino E C.;IT10561820019;_10138;Torino;01/07/2017;Via Di Nanni;_79/E;;
;7.6221131;45.07469625;116;;Braccio Snc Della Dr.ssa Fassio Claudia E C.;IT09595260010;_10138;Torino;01/03/2013;Via Almese;_2D;;
;7.6221131;45.07469625;117;;Porta Susa Snc Di E. E L. Platter;IT06351660011;_10138;Torino;01/01/2005;Corso Francia;_1/bis;;
;7.63746533715329;45.069334022797698;118;;Madonna Dei Fiori Di Prandi M.g. E I. Snc;IT06574440019;_10139;Torino;01/01/2005;Corso Peschiera;_244/A;;
;7.6859719;45.0709201;119;;Balocco;IT06588510013;_10138;Torino;01/01/2005;Corso Peschiera;_142/F;;
;7.64278970005559;45.070294646588501;120;;Cenisia Di Ventura Angelo E C. Sas;IT06645590016;_10139;Torino;01/01/2005;Via Frejus;_41;;
;7.65380336494147;45.071539165212201;121;;Del Benessere Di Fedeli Sas Del Dott. Marinello Stefano & C.;IT06915420019;_10138;Torino;01/01/2005;Piazza Adriano;_12;;
;7.62850395;45.0642348;122;;Comunale 45 - Afc;IT09971950010;_10138;Torino;01/08/2010;Via Monginevro;_29;;
;7.5125811405649;45.080091573371803;123;;Santa Rosa;IT07860820013;_10139;Torino;01/09/2010;Via Di Nanni;_42;;
;7.6594485;45.0402671;124;;Santa Rita Snc;IT09247120018;_10137;Torino;01/01/2008;Corso Sebastopoli;_143;;
;7.60439370614901;45.030639935558298;125;;Comunale 1 - Afc;IT09971950010;_10137;Torino;01/09/2010;Corso Orbassano;_249;;
;7.6594485;45.0402671;126;;Comunale 9 - Afc;IT09971950010;_10136;Torino;01/09/2010;Corso Sebastopoli;_272;;
;7.64589027648495;45.041747653738398;127;;Comunale 36 - Afc;IT01131720011;_10137;Torino;01/03/2013;Via Filadelfia;_142;;
;7.63968117536912;45.037834972351703;128;;Dell'orso;IT09967530016;_10137;Torino;01/03/2013;Via Buenos Aires;_77;;
;7.64040250885665;45.039403026929499;129;;Amici Snc Di Amici Paola E Luca;IT00936010016;_10134;Torino;01/01/2005;Via San Marino;_37;;
;7.6859719;45.0709201;130;;Comunale 37 - Afc;IT07019070015;_10137;Torino;01/01/2005;Corso Agnelli;_56;;
;7.60439370614901;45.030639935558298;131;;Rognone;IT00414760017;_10137;Torino;01/01/2005;Corso Orbassano;_216;;
;7.65024715;45.05228865;132;;Madonna Dell'aiuto;IT02584250019;_10136;Torino;01/01/2005;Via Tripoli;_15/A;;
;7.63499842298492;45.0573063186486;133;;San Pietro Snc Di Bonello Dott. Stefano E Cornelio Dott. Filippo;IT10831600019;_10137;Torino;01/07/2017;Corso Siracusa;_87;;
;7.64695287728981;45.046604460855903;134;;Del Borgo Di U.w.s. Sas Di Giaccone Mario;IT10289910019;_10136;Torino;01/10/2010;Via Barletta;_84/f;;
;7.51244122057268;45.076718888236201;136;;Althea Snc Della Dr.ssa Brussino Daniela;IT11289780014;_10137;Torino;01/07/2017;Via Gorizia;_133;;
;7.6594485;45.0402671;137;;Minati;IT07393730010;_10136;Torino;01/01/2005;Corso Sebastopoli;_202/B;;
;7.64695287728981;45.046604460855903;138;;Giaccone Di Braccio Snc Della Dr.ssa Fassio Claudia E C.;IT09595260010;_10136;Torino;01/03/2013;Via Barletta;_93;;
;7.6435972;45.0349796;139;;Roagna Snc Delle Dott.sse Suria M. E Roagna M. C.;IT07707620014;_10134;Torino;01/07/2008;Corso Agnelli;_117;;
;7.65024715;45.05228865;140;;Moderna Di Eurofarmacia Sas Del Dott. Torgani Roberto;IT09559770012;_10136;Torino;01/09/2010;Via Tripoli;_58;;
;7.64040250885665;45.039403026929499;141;;Beato Angelico Del Gruppo F.cie Popolari  Subalpine Sas Di Crepaldi E.;IT03170560019;_10137;Torino;01/01/2005;Via San Marino;_69;;
;7.6273312;45.0488844;142;;Comunale 23 - Afc;IT00582490017;_10137;Torino;01/04/2007;Via Guido Reni;_155/157;;
;7.61900892378344;45.039287853629098;143;;Comunale 35 - Afc;IT01131200014;_10137;Torino;01/04/2007;Via Cimabue;_8;;
;7.6859719;45.0709201;144;;Santi Cosma E Damiano Di Rosenkrantz Federica Maria;IT11286230013;_10137;Torino;01/07/2017;Piazza Omero;_16;;
;7.6594485;45.0402671;145;;Santa Silvia Snc Dei Dottori Luisella E Paolo Cagno;IT09964280011;_10136;Torino;01/09/2010;Corso Sebastopoli;_298;;
;7.6859719;45.0709201;146;;Filadelfia Dott.santomartino;IT10053630017;_10137;Torino;01/03/2013;Via Guido Reni 109/A;_;;
;7.6859719;45.0709201;147;;San Giorgio;IT05467360011;_10137;Torino;01/01/2005;Piazza Dante Livio Bianco;_10;;
;7.60439370614901;45.030639935558298;148;;Europa Di Mondino Dott.ssa Paola;IT11623330013;_10125;Torino;01/07/2017;Corso Orbassano;_302;;
;7.6379470038673;45.035292938444798;149;;Mirafiori Snc Di Cellura Dott. G. & C.;IT07444800010;_10137;Torino;01/01/2008;Via Sanremo;_37;;
;7.63256996144574;45.0410068231485;150;;Cosenza Di Sarnico Sara Simona Luisa;IT10753940013;_10137;Torino;01/07/2017;Corso Cosenza;_39;;
;7.6345498;45.0396853;151;;Pitagora Snc Delle Dott.sse D. Bonicelli E L. Ramassotto;IT07813090011;_10137;Torino;01/04/2007;Piazza Pitagora;_9;;
;7.63499842298492;45.0573063186486;152;;Corso Siracusa;IT08053820018;_10137;Torino;01/01/2008;Corso Siracusa;_98;;
;7.60947095;45.07095845;153;;Comunale 5 - Afc;IT09971950010;_10142;Torino;01/09/2010;Via Rieti;_55;;
;7.63507994792663;45.055278482400702;154;;Comunale 7 - Afc;IT09971950010;_10141;Torino;01/09/2010;Corso Trapani;_150;;
;7.64434931880366;45.075390895942199;155;;Baima Di Baima Poma Elena Maria & C. Snc;IT09950530015;_10139;Torino;01/05/2015;Piazza Rivoli;_11;;
;7.5923284;45.07147905;156;;Comunale 38 - Afc;IT00529840019;_10141;Torino;01/04/2007;Via Vandalino;_9/11;;
;7.63746533715329;45.069334022797698;157;;Peschiera Di Valori Giuseppe;IT08763380014;_10141;Torino;01/07/2016;Corso Peschiera;_295;;
;7.62850395;45.0642348;158;;Sburlati Emanuela;IT08753390015;_10141;Torino;01/09/2010;Via Monginevro;_126;;
;7.62850395;45.0642348;159;;Borgata Lesna Sas Della Dr.ssa Visconti Manuela E C.;IT10841570012;_10142;Torino;01/07/2017;Via Monginevro;_245;;
;7.62850395;45.0642348;160;;Monginevro;IT04974530018;_10141;Torino;01/01/2005;Via Monginevro;_178;;
;7.6859719;45.0709201;161;;Villa Giusti Di Allini Eredi;IT06715200017;_10142;Torino;01/09/2010;Via S. M. Mazzarello;_18/D;;
;7.6221131;45.07469625;162;;Corso Francia;IT05917190018;_10139;Torino;01/01/2005;Corso Francia;_175;;
;7.32209651756328;44.877038748937203;163;;Gancia Dimitri;IT10843570010;_10142;Torino;01/07/2017;Via Asiago;_35;;
;7.6221131;45.07469625;164;;Donato Di Donato Giulia E C. Snc;IT06575730012;_10142;Torino;01/01/2005;Corso Francia;_385;;
;7.56326711110861;45.074390924024399;165;;San Benedetto Di Dalmasso Dott. Luca;IT11567230013;_10139;Torino;01/07/2017;Via Bardonecchia;_114;;
;7.6221131;45.07469625;166;;Pozzo Strada Snc Delle Dott.sse Gozzelino Grazia Maria E Bianco Loreda;IT09007200018;_10139;Torino;01/09/2010;Corso Francia;_273;;
;7.6186181;45.07461385;167;;Piazza Massaua Snc;IT08760910011;_10141;Torino;01/09/2017;Piazza Massaua;_1;;
;7.62657215301106;45.063295550576903;168;;Brunelleschi;IT07387670016;_10141;Torino;01/01/2005;Corso Brunelleschi;_75/c;;
;7.6859719;45.0709201;169;;Parini Snc;IT07873340017;_10142;Torino;01/09/2010;Via Franceso De Sanctis;_60;;
;7.64278970005559;45.070294646588501;170;;San Giovanni Sas Della Dr.ssa Maria Edvige Mai & C.;IT08476620011;_10139;Torino;01/03/2013;Via Frejus;_97/A;;
;7.65832602742841;45.082732994120597;171;;F.cia Borelli Di Rinaudo E.;IT00510810013;_10144;Torino;01/02/2017;Via San Donato;_9;;
;7.6859719;45.0709201;172;;Monge;IT00510950017;_10144;Torino;01/01/2005;Corso R. Margherita;_218/bis;;
;7.65606425;45.0814213;173;;Santa Zita Sacchi;IT08608970011;_10143;Torino;01/09/2010;Via Luigi Cibrario;_33/bis;;
;7.67253301111757;45.080562645790202;174;;Bonanno;IT10153910012;_10144;Torino;01/11/2011;Corso Regina Margherita;_256;;
;7.65606425;45.0814213;175;;Crida Di Ferro Dr.ssa Maria Gemma;IT10465660016;_10143;Torino;01/03/2011;Via Luigi Cibrario;_88;;
;7.65621943579421;45.079220791107602;176;;Scotti Sas Del Dr. Scotti Luca & C.;IT10372060011;_10143;Torino;01/01/2011;Via Nicola Fabrizi;_11;;
;7.6495844;45.08380735;177;;Comunale 44 - Afc;IT00529840019;_10144;Torino;01/04/2007;Via Cibrario;_72;;
;7.6859719;45.0709201;178;;Sant'alfonso Di Gambino Dott. Francesca;IT10841110017;_10144;Torino;01/07/2017;Corso Alessandro Tassoni;_66/D;;
;7.6487287;45.07572155;179;;Stroppiana Delle Dott.sse Velca E Carla Snc;IT06672810014;_10143;Torino;01/01/2005;Corso Svizzera;_42;;
;7.6859719;45.0709201;180;;Manenti;IT07208500012;_10143;Torino;01/01/2005;Via Pietro Piffetti;_31/bis;;
;7.65832602742841;45.082732994120597;181;;San Donato;IT02810710018;_10144;Torino;01/01/2005;Via San Donato;_55;;
;7.65621943579421;45.079220791107602;182;;Farmacia Santa Marta Sas Della Dr.ssa Morigi Adriana E C.;IT11623340012;_10145;Torino;01/07/2017;Via Nicola Fabrizi;_102;;
;7.6859719;45.0709201;183;;Comunale 10 - Afc;IT01117100014;_10146;Torino;01/04/2007;Via Asinari Vittorio Di Bernezzo;_134;;
;7.6458477491207;45.079421612187097;184;;Rinetti;IT08440620014;_10145;Torino;01/01/2005;Corso Lecce;_31;;
;7.63268615;45.0826962;185;;Castaldi;IT10248430018;_10146;Torino;01/02/2015;Piazza Tommaso Campanella;_9;;
;7.6859719;45.0709201;186;;Comunale 22 - Afc;IT05331560010;_10146;Torino;01/04/2007;Via Capelli;_47;;
;7.6859719;45.0709201;187;;Comunale 24 - Afc;IT06687440013;_10146;Torino;01/04/2007;Via Bellardi;_3;;
;7.63268088942307;45.079990142196998;188;;Lucente;IT00547110015;_10146;Torino;01/01/2005;Via Valentino Carrera;_88;;
;7.51996008160556;45.070288438179098;189;;Tesoriera;IT01830720015;_10146;Torino;01/01/2005;Corso Francia;_212;;
;7.6392170011833;45.083431984922797;190;;Serravalle Eredi;IT11493020017;_10145;Torino;01/05/2016;Via Michele Lessona;_29;;
;7.63407665305349;45.0800001694709;191;;Farmacia Parella Srl;IT10465250016;_10146;Torino;01/02/2018;Via Carlo Capelli;_67/c;;
;7.6375677;45.0804014;192;;Montegrappa Snc Dei Dr.i Panizza Franco E Caccamo Giulia;IT10455750017;_10146;Torino;01/05/2016;Corso Monte Grappa;_55;;
;7.62873365;45.08809925;193;;Pietro Cossa Snc Di Verzini Laura E C.;IT09360430012;_10146;Torino;01/09/2010;Via Pietro Cossa;_106;;
;7.6859719;45.0709201;194;;Comunale 2 - Afc;IT09971950010;_10149;Torino;01/05/2009;Via Slaaper;_25 bis;;
;7.65646752497665;45.105537938612201;195;;Comunale 33 - Afc;IT09971950010;_10151;Torino;01/08/2010;Via Isernia;_13/B;;
;7.6318964123844;45.105370180449903;196;;Piccardo;IT05985080018;_10151;Torino;01/01/2005;Via delle Verbene;_11;;
;7.6331517;45.103163599999988;197;;Delle Vallette Snc;IT09148460018;_10151;Torino;01/09/2010;Viale dei Mughetti;_9/f;;
;7.6859719;45.0709201;198;;Igea Di Gozeni M. E C. Snc;IT06374520010;_10149;Torino;01/01/2005;Largo Toscana;_50;;
;7.65956551892221;45.096128638547803;199;;Piemonte Sas Di Cerrato Anna Maria & C.;IT06571150017;_10149;Torino;01/03/2013;Corso Toscana;_107;;
;7.65038015;45.0946616;200;;Lucento Di Operti Dott. G. & C. Snc;IT06575400012;_10149;Torino;01/01/2008;Via Oglianico;_4;;
;7.65320488501761;45.0976511943487;201;;Santa Teresa Snc Dei Dott. Claudio E Silvia Gagliasso;IT11573610018;_10149;Torino;01/07/2017;Via Giosue` Borsi;_114;;
;7.6859719;45.0709201;202;;Minerva Sas Del Dr. Tealdi Marco  & C.;IT07513330014;_10151;Torino;01/04/2013;Viale dei Mughetti;_1;;
;7.65956551892221;45.096128638547803;203;;Sansovino Di Nicosia Dott. Alessandro;IT11036760012;_10151;Torino;01/07/2017;Corso Toscana;_185/A;;
;7.66992515209617;45.097209234885099;204;;Farmacia Piazza Villari;IT09253640016;_10149;Torino;01/12/2017;Via Foligno;_69;;
;7.6859719;45.0709201;205;;Comunale 11 - Afc;IT09971950010;_10148;Torino;01/09/2010;Piazza Stampalia;_7;;
;7.7000200923549;45.1488446915453;206;;Sardi;IT01760230019;_10149;Torino;01/01/2005;Via Borgaro;_58;;
;7.66125694294654;45.105618455452401;207;;Corso Grosseto;IT04339700017;_10147;Torino;01/01/2005;Corso Grosseto;_221;;
;7.67907705080713;45.090863067046797;208;;Annunziata Di Gillone Maria Giacinta;IT10950650019;_10147;Torino;01/07/2017;Via Stradella;_198;;
;7.67039228987023;45.0959863052625;209;;Calvo;IT05026610013;_10149;Torino;01/04/2013;Via Bernardino Luini;_34;;
;7.65956551892221;45.096128638547803;210;;Toscana Snc Delle Dott.sse Fischi Luisa, Aragno Barbara E C.;IT11300560015;_10149;Torino;01/07/2017;Corso Toscana;_20;;
;7.66125694294654;45.105618455452401;211;;Madonna Di Campagna Di Ferraris Lorenzo E C. Snc;IT06573590012;_10148;Torino;01/04/2013;Corso Grosseto;_256;;
;7.6671689;45.1052871;212;;Del Mercato Di Bosio Giovanni E C. Snc;IT06948210015;_10148;Torino;01/01/2005;Corso Grosseto;_216/C;;
;7.65383925;45.09091245;213;;Vela Sas Di Rossetti Giovanni & C.;IT09974200017;_10149;Torino;01/09/2010;Corso Potenza;_92;;
;7.66925287271346;45.101530269784;214;;Garelli Snc Dei Dott.ri Garelli Federico, Fiammetta, Mario E Michela G;IT07906530014;_10147;Torino;01/04/2013;Via Cardinale Guglielmo Massaia;_45;;
;7.6859719;45.0709201;215;;Farmacia San Paolo Sas Di Federica Bertotti & C.;IT10179830012;_10148;Torino;01/05/2017;Via Michele Berrino;_6;;
;7.67776058495893;45.101907447482603;216;;Farmacia Prof. Cavanna S.n.c. Delle Dottoresse Francone Nada E Patrizia E C.;IT10190610013;_10147;Torino;01/07/2017;Via Gaetano Mosca;_1;;
;7.6788495;45.0943153;217;;Comunale 19 - Afc;IT05424800018;_10147;Torino;01/04/2007;Via Vibo`;_17/B;;
;7.6859719;45.0709201;218;;Comunale 29 - Afc;IT01933140012;_10149;Torino;01/04/2013;Via Orvieto;_10/A;;
;7.67690751610853;45.095418269162003;219;;Madonna Della Salute Di Vittoria Snc Delle Dr.e Franze' R. E Franco C.;IT10236870019;_10147;Torino;01/02/2015;Piazza della Vittoria;_29;;
;7.67907705080713;45.090863067046797;220;;Lorenzetti Sas Del Dott. Lorenzetti Paolo E C.;IT11338650010;_10147;Torino;01/07/2017;Via Stradella;_36;;
;7.68113039811545;45.102485292493803;221;;Chierici Snc Dei Dr.i Chierici Silvia E Gian Mario;IT10589530012;_10147;Torino;01/07/2017;Via Chiesa della Salute;_105;;
;7.68512201079704;45.109305529922899;222;;Farmacia Santa Elisabetta;IT11681090012;_10148;Torino;01/09/2017;Corso Grosseto;_66;;
;7.68113039811545;45.102485292493803;223;;Borgo Vittoria Snc Dei Dott.ri Giulia E Luigi Stano;IT08056600011;_10147;Torino;01/01/2008;Via Chiesa della Salute;_64;;
;7.66125694294654;45.105618455452401;224;;San Rocco Dr. Arese Gianpiero;IT11324150017;_10147;Torino;01/07/2017;Corso Grosseto;_165;;
;7.62873365;45.08809925;225;;Regina Margherita;IT05346970014;_10151;Torino;01/01/2005;Via Pietro Cossa;_280;;
;7.6859719;45.0709201;226;;Breglio Di Barone Omar;IT09932400014;_10147;Torino;01/09/2010;Via Breglio;_16;;
;7.7000200923549;45.1488446915453;227;;Santa Chiara;IT11565600019;_10147;Torino;01/07/2017;Via Borgaro;_103;;
;7.69286935709974;45.081233166977697;228;;De Angeli;IT09826310014;_10152;Torino;01/12/2014;Via Bologna;_21;;
;7.67253301111757;45.080562645790202;229;;Palatina Del Dott. Meda Maurilio;IT09639940015;_10153;Torino;01/07/2017;Corso Regina Margherita;_134;;
;7.6859719;45.0709201;230;;Borgo Rossini Di Balbi Aldo Tognacca;IT07875100013;_10153;Torino;01/01/2008;Via Reggio;_1;;
;7.6603768;44.9885229;231;;Farmacia Dora Di Ratto Alessandro;IT11623320014;_10155;Torino;01/07/2017;Via Cigna;_118;;
;7.68353406914557;45.0766666431728;232;;Porta Palazzo Sas Del Dr. Illengo Carlo E C.;IT10534590012;_10152;Torino;01/09/2011;Piazza della Repubblica;_21;;
;7.67253301111757;45.080562645790202;233;;Santa Giustina;IT07266050017;_10152;Torino;01/09/2010;Corso Regina Margherita;_114;;
;7.6859719;45.0709201;234;;Dutto Snc Del Dott. Michele Roagna E C.;IT07729110010;_10152;Torino;01/05/2009;Corso Giulio Cesare;_48;;
;7.6859719;45.0709201;235;;Dei Fiori Snc Dei Dott.ri Lantelme Faisan, Bonello E Giori;IT07970900010;_10153;Torino;01/04/2013;Corso Regio Parco;_38;;
;7.6859719;45.0709201;236;;Cigna Sas Dela Dr.ssa Bellone Giada & C.;IT09373120014;_10152;Torino;01/09/2010;Via Francesco Cigna;_53;;
;7.6699317273753;45.0790743780802;237;;Dell'ausiliatrice Di Marco Ambrois E C. Sas;IT08379260014;_10152;Torino;01/01/2008;Corso Principe Oddone;_28;;
;7.69753880661109;45.098243004828802;238;;Aurora Snc Delle Dott.sse Paola Bevilacqua Ed Elena Faraldi;IT08407390015;_10152;Torino;01/10/2010;Corso Giulio Cesare;_24;;
;7.6859719;45.0709201;239;;Don Bosco;IT05266490019;_10152;Torino;01/01/2005;Via Francesco Cigna;_44;;
;7.72076537817486;45.0729150166135;240;;Comunale 4 - Afc;IT09971950010;_10153;Torino;01/09/2010;Via Oropa;_69;;
;7.71899926438224;45.072596881436397;241;;Marinello Di Magistra Sas Del Dr. Marinello Stefano & C.;IT09731670015;_10153;Torino;01/02/2015;Corso Brianza;_22;;
;7.72121904973911;45.0743177001711;242;;Comunale 21- Afc;IT07151360018;_10153;Torino;01/04/2007;Corso Belgio;_151/B;;
;7.67253301111757;45.080562645790202;243;;Corso Regina Di Farmacia Santa Maria Snc Di Garelli Michela G. E Mario;IT09413940017;_10153;Torino;01/07/2017;Corso Regina Margherita;_66/bis;;
;7.69957340101942;45.068709956275903;244;;Nazionale Dei Dott.ri Barbara E Alberto Truffelli Snc;IT07478190015;_10124;Torino;01/09/2007;Via Vanchiglia;_29/A;;
;7.69013134251439;45.074170365822503;245;;Della Mole Di Farmacia Maria Cristina Sas Del Dr. Pautasso Renato E C.;IT10313740010;_10124;Torino;01/07/2017;Corso San Maurizio;_35;;
;7.72121904973911;45.0743177001711;246;;Squillario;IT11221480012;_10153;Torino;01/07/2017;Corso Belgio;_41;;
;7.70197735;45.0675501;247;;Santa Giulia Di Serra Dott. G. E C. Snc;IT07288040012;_10124;Torino;01/04/2007;Via Santa Giulia;_38;;
;7.72121904973911;45.0743177001711;248;;Caruso Di Marinelli Alfredo;IT06960440011;_10153;Torino;01/02/2015;Corso Belgio;_180;;
;7.69013134251439;45.074170365822503;249;;Porinelli;IT08100460016;_10124;Torino;01/01/2005;Corso S. Maurizio;_67;;
;7.69753880661109;45.098243004828802;250;;Monterosa Snc Di Emaldi Vistoli Antonia E Zanini Elisa;IT09286970018;_10154;Torino;01/01/2008;Corso Giulio Cesare;_158;;
;7.70350609154296;45.092536159491601;251;;Delle Maddalene Snc Di Sergio, Emanuela E Gianluca Pettazzi;IT09249690018;_10154;Torino;01/10/2010;Piazza Ottorino Respighi;_3;;
;7.69869029659072;45.091193934812999;252;;Granero Snc Dei Dr.i Granero Luciano, Laura E Paola;IT08759940011;_10154;Torino;01/01/2008;Via Brandizzo;_90;;
;7.89495225047617;45.468437332857;253;;Cervino;IT00246650014;_10155;Torino;01/01/2005;Corso Vercelli;_111;;
;7.6859719;45.0709201;254;;Gottardo Sas;IT10289920018;_10155;Torino;01/08/2010;Largo Sempione;_186/C;;
;7.6859719;45.0709201;255;;Robino;IT05483990015;_10155;Torino;01/01/2005;Via Pier Luigi Palestrina;_49;;
;7.89495225047617;45.468437332857;256;;Vagnino Di Fedeli Sas Del Dot. Marinello Stefano & C.;IT09582410016;_10155;Torino;01/09/2010;Corso Vercelli;_74;;
;7.69266388354032;45.078758981214698;257;;Madonna Della Pace S.a.s. Del Dr. Bollo Vittorio & C.;IT10421300012;_10154;Torino;01/03/2011;Corso Palermo;_119;;
;7.70472994199909;45.086456827843897;258;;Omeopatica Dabbene Di Dabbene Dott. Paolo & C. - S.a.s.;IT06575380016;_10154;Torino;01/09/2016;Via Bologna;_91/D;;
;7.69734826332314;45.0901478863302;259;;Calandra Snc Dei Dr.i Giorgio E Mario Calandra;IT09489870015;_10154;Torino;01/09/2010;Via Crescentino;_34;;
;7.70961875958768;45.092082448631203;260;;Farmacia Policlinico Del Dott. Giani Paolo & C. S.a.s.;IT08256660013;_10155;Torino;01/11/2017;Via Sempione;_112;;
;7.89495225047617;45.468437332857;261;;Comunale 12 - Afc;IT00301990016;_10155;Torino;01/04/2007;Corso Vercelli;_236;;
;7.70588392698536;45.1151095268104;262;;Comunale 20 - Afc;IT02010170013;_10156;Torino;01/04/2013;Corso Romania;_460;;
;7.89495225047617;45.468437332857;263;;Farmacia Santi Angeli Custodi S.n.c. Dei Dottori Chierici Cristina Maria E Gian Mario;IT10589550010;_10155;Torino;01/07/2017;Corso Vercelli;_195;;
;7.71039829576955;45.130801472653999;264;;Comunale 41 - Afc;IT01131200014;_10156;Torino;01/04/2007;Via degli Abeti;_10;;
;7.69916053606519;45.105392148165201;265;;Franco Di Rizzato Mara & C. Sas;IT10833940017;_10155;Torino;01/07/2017;Piazza Solferino;_5;;
;7.69636931595592;45.100591785058803;266;;Porpora Snc Dei Dott.ri Argano G. E Visentin R. & C.;IT07377320010;_10155;Torino;01/04/2013;Via Nicola Porpora;_27;;
;7.708719;45.126714799999988;267;;Della Stura Sas Di Dr. Giovanni Avramo & C;IT09483270014;_10156;Torino;01/03/2016;Viale Falchera;_70/B;;
;7.73354370637473;45.100697865890702;268;;Sant'agnese Di Guidetti Dott. Roberta;IT10841110017;_10156;Torino;01/07/2017;Strada San Mauro;_35;;
;7.69753626781592;45.102370497398397;269;;San Michele;IT01716290018;_10154;Torino;01/01/2005;Corso Taranto;_15;;
;7.73354370637473;45.100697865890702;270;;Balossino;IT02603320025;_10156;Torino;01/09/2017;Strada San Mauro;_172;;
;7.6859719;45.0709201;271;;Regio Parco;IT10957120016;_10154;Torino;01/07/2017;Corso Taranto;_183/c;;
;7.70472994199909;45.086456827843897;272;;Cesano Di Cesano Dott.ssa Chiara;IT09880660015;_10154;Torino;01/09/2008;Via Bologna;_250/A;;
;7.69753880661109;45.098243004828802;273;;Sempione;IT08553640015;_10154;Torino;01/01/2008;Corso Giulio Cesare;_118;;
;7.6859719;45.0709201;274;;Novara Di Novara Silvia;IT07382020019;_10154;Torino;01/07/2017;Via Ancina;_43/g;;
;7.72992894685146;45.082268632717202;275;;Santa Croce;IT01336830011;_10132;Torino;01/01/2005;Corso Casale;_204;;
;7.72992894685146;45.082268632717202;276;;Sassi;IT10627520017;_10132;Torino;01/07/2017;Corso Casale;_316;;
;7.71079038275647;45.066430264576802;277;;Subalpina;IT06101690011;_10132;Torino;01/01/2005;Via Castelnuovo;_5;;
;7.72992894685146;45.082268632717202;278;;Madonna Del Pilone Snc Di Guglielmo Gabriella E Patrizia E Giachello G;IT08617960011;_10132;Torino;01/05/2016;Corso Casale;_110;;
;7.72601102675591;45.069609707707997;279;;Boccaccio;IT07477130012;_10132;Torino;01/01/2005;Via Giovanni Boccaccio;_16;;
;7.57843;45.06395;280;;Vecco Snc Di Vecco Rd Giorgio E C.;IT09249220014;_10095;Grugliasco;01/02/2016;Via Lupo;_65;;
;7.59121505;45.075997;281;;Borgata Paradiso;IT09185170017;_10093;Collegno;01/09/2010;Via Edmondo De Amicis;_18;;
;7.56896;45.0763;282;;Invernizzi;IT02744860012;_10093;Collegno;01/01/2008;Via Lamarmora;_43;;
;7.55948624105712;45.074312415264998;283;;Terracorta;IT04410750014;_10093;Collegno;01/01/2005;Via Bardonecchia;_6;;
;7.59324443422075;45.055464287322998;284;;Torta Snc Di Torta Dott. Emilio E C.;IT09595210015;_10095;Grugliasco;01/09/2010;Via L. Tron;_27;;
;7.5761271;45.0731025;285;;Farmacia Santa Monica S.a.s. Di Bergonzo Dott. Giuseppe & C.;IT10192190014;_10093;Collegno;01/10/2016;Corso Francia;_65;;
;7.56186178623851;45.083180220895898;286;;Antica Certosa;IT08763390013;_10093;Collegno;01/01/2008;Via Antica di Rivoli;_32;;
;7.5741549;45.0750498;287;;Centrale;IT05267630019;_10093;Collegno;01/01/2005;Viale XXIV Maggio;_32;;
;7.5761271;45.0731025;288;;Santa Maria Di Fate Sas Del Dott. Tenivella Franco E C.;IT10994150018;_10093;Collegno;01/07/2017;Corso Francia;_157;;
;7.58521;45.0702;289;;Lamarmora Snc Dei Dott.ri Trotta Carlo, Claudia E Stefano;IT09966810013;_10095;Grugliasco;01/09/2010;Via Lamarmora;_245;;
;7.614636;45.115389;290;;Sant'antonio Di Alyma Snc;IT11279980012;_10093;Collegno;01/07/2017;Strada Torino Druento;_10;;
;7.5714863;45.0925562;291;;Oltre Dora;IT07341620016;_10093;Collegno;01/01/2008;Via Partigiani;_38;;
;7.59324443422075;45.055464287322998;292;;Santa Giulia Del Gruppo F.cie Popolari Subalpine Sas Di Crepaldi E.;IT09473380013;_10095;Grugliasco;01/09/2010;Viale Radich;_21;;
;7.57985;45.06969;293;;Bonzano;IT07441190019;_10095;Grugliasco;01/09/2010;Viale Gramsci;_152;;
;7.56172646311543;45.067093871364101;294;;Leumann S.a.s. Di Torchio Dr.gianmario & C.;IT10179160014;_10096;Collegno;01/01/2010;Via Fabbrichetta;_11;;
;7.562486;45.067712;295;;Peirano;IT07815270017;_10095;Grugliasco;01/02/2008;Piazza I Maggio;_8;;
;7.59324443422075;45.055464287322998;296;;I Gelsi Della Dr.ssa Alloi Annalisa E C. Sas;IT04748720010;_10095;Grugliasco;01/04/2013;Via Crea;_10 - Shop;;
;7.61560367681112;45.044998091299803;297;;Santa Maria Snc Di Garelli Michela G. E Folco Anna Maria G.;IT07859630019;_10095;Grugliasco;01/01/2005;Via Moncalieri;_122;;
;7.51876423623767;45.070555598842397;298;;Maestra Di Dabbene Snc Dei Dott.ri Dabenne Paolo E Debernardi Marvit;IT10513130012;_10098;Rivoli;01/04/2013;Via Fratelli Piol;_35;;
;7.52356351152809;45.066746546157198;300;;Azienda Speciale Multiservizi N.10 Del Comune Di Venaria;IT07019070015;_10098;Rivoli;01/03/2013;Via De Gasperi;_24/A;;
;7.52091217444254;45.070485501668202;301;;Santa Cristina Snc Dei Dr.i Paolo Ed Enrica Maria Targhetta;IT11231850014;_10098;Rivoli;01/07/2017;Corso Francia;_127;;
;7.5636067;45.0705321;302;;Comunale 3;IT07019070015;_10098;Rivoli;01/01/2005;Via Fellonia;_34;;
;7.50573099461938;45.081072940019098;303;;Reale Snc Di Guglielmetto Elena C., Dabbene Paolo E Debernardi  Marvit;IT10513120013;_10098;Rivoli;01/02/2015;Corso Susa;_42;;
;7.51918205;45.06265935;304;;Farmacia Vittoria Della Dr.ssa Mongardi Maria Vittoria;IT11427030017;_10098;Rivoli;01/07/2017;Piazza Cavallero;_1;;
;7.52091217444254;45.070485501668202;305;;Centrale Sas Di Bagnasco Dr.ssa Paola & C;IT09734300016;_10098;Rivoli;01/02/2008;Corso Francia;_4;;
;7.46656669546623;45.074922723594497;306;;Gavotti;IT06947790017;_10090;Rosta;01/01/2005;Via Buttigliera;_15;;
;7.5558;45.07564;307;;Comunale 04;IT05988080015;_10098;Rivoli;01/07/2017;Viale Carr?;_20;;
;7.51703323117716;45.100954141376299;308;;San Giacomo Del Dott. Torchio Gianmario E Bergonzo Giuseppe E C. Sas;IT10965940017;_10091;Alpignano;01/07/2017;Via Cruto;_25;;
;7.51703323117716;45.100954141376299;309;;Azienda Speciale Multiservizi - F. 5;IT08210480011;_10091;Alpignano;01/04/2007;Via Cavour;_34/e/f;;
;7.44733402968128;45.1542226411634;310;;Micheloni;IT05428260011;_10040;Val Della Torre;01/01/2005;Via Montelera;_18;;
;7.50573099461938;45.081072940019098;311;;Internazionale Due Di Due Sas Del Dott. Oliosi Enrico & C.;IT03155450012;_10098;Rivoli;01/02/2015;Corso Susa;_134/bis;;
;7.51703323117716;45.100954141376299;312;;Zamparo;IT08070280014;_10091;Alpignano;01/01/2005;Via Mazzini;_92;;
;7.46847;45.0450299;313;;San Nazario;IT08105270014;_10090;Villarbasse;01/03/2013;Via Matteotti;_3;;
;7.51703323117716;45.100954141376299;314;;Vietti;IT08249170013;_10091;Alpignano;01/01/2005;Via Mazzini;_25;;
;7.52091217444254;45.070485501668202;315;;Sant'eusebio Di Bergonzo Dr.giuseppe E Toprchio Dr. Gianmario Sas;IT08253450012;_10098;Rivoli;01/03/2013;Corso Francia;_77;;
;7.54393054512829;45.0688073829469;316;;San Paolo Di Maschietto Dott. Graziella;IT08569690012;_10098;Rivoli;01/02/2015;Via Ticino;_4;;
;7.5793974;45.022097;317;;Borghesio Snc Delle Dr.sse Giovanna Borghesio E Stefania Sacchi;IT08958640016;_10092;Beinasco;01/09/2010;Viale Cavour;_45 ang Vi;;
;7.5200937047577;45.0224842323193;318;;San Vittore;IT08553630016;_10040;Rivalta Di Torino;01/01/2008;Piazza Martiri Liberta';_7/5;;
;7.54129561704338;45.005654404404098;319;;Comunale N.1;IT01384600019;_10043;Orbassano;01/01/2005;Via San Rocco;_12;;
;7.47455639302686;44.990027429218699;320;;Roggero Snc Di Gian Franco E Simona Roggero;IT09357600015;_10045;Piossasco;01/09/2010;Via Torino;_31/6;;
;7.60326433935897;45.004489807604699;321;;Facci Tosatti;IT02893390019;_10092;Beinasco;01/01/2005;Via Gorizia;_21/B;;
;7.53691327989802;45.007258487454301;322;;San Giuseppe;IT05129500012;_10043;Orbassano;01/01/2005;Piazza Umberto I;_10;;
;7.5124;44.95627;323;;Sinisi Grazia;IT05303270010;_10040;Volvera;01/01/2005;Via Ponsati;_49;;
;7.45486457871946;44.981099339428901;324;;Chiabrando;IT05424800018;_10045;Piossasco;01/01/2005;Via Pinerolo;_84/4;;
;7.5200937047577;45.0224842323193;325;;Della Salute;IT02782480012;_10040;Rivalta Di Torino;01/01/2005;Via Torino;_57;;
;7.55599465306487;45.005759381361003;326;;Popolare Sas Di Arecco Domenico E C.;IT09967560013;_10043;Orbassano;01/09/2010;Piazzetta dei Filatoi;_4-4/a;;
;7.45486457871946;44.981099339428901;327;;Farmacia Gazzolo S.n.c. Di Gazzolo Dr. Marco E Gazzolo Dr. Alberto;IT06374540018;_10045;Piossasco;01/01/2017;Via Pinerolo;_12/14;;
;7.55599465306487;45.005759381361003;328;;Comunale 02;IT01384600019;_10043;Orbassano;01/01/2008;Via Monte Grappa;_3/2;;
;7.59832980827359;45.002825743899699;329;;Beinasco Servizi S.r.l.;IT07319600016;_10092;Beinasco;01/01/2008;Via Orbassano;_2;;
;7.5793974;45.022097;330;;Accademia;IT07687610019;_10092;Beinasco;01/04/2007;Largo Torino;_9;;
;7.51493941927059;45.010802297688898;331;;Ruggiero;IT07982940012;_10040;Rivalta Di Torino;01/01/2005;Via Giaveno;_54/17;;
;7.51301395;44.9986385;333;;Demichelis;IT08522280018;_10040;Rivalta Di Torino;01/01/2005;Via I Maggio;_73/75;;
;7.35146650592215;45.042733586570201;334;;Appendini - Due Di Due S.a.s. Del Dott. Oliosi Enrico & C.;IT09726750012;_10094;Giaveno;01/01/2008;Via Umberto I;_6;;
;7.3521765944416;45.0421118511656;335;;Sant'antero;IT03603760012;_10094;Giaveno;01/01/2005;Piazza San Lorenzo;_16;;
;7.40491924159031;45.028880939587602;336;;Antica Farmacia Di Trana Di Colmaz Snc Dei Dr.i Colloca G. E Mazzoni V;IT10914890016;_10090;Trana;01/07/2017;Via Roma;_13;;
;7.44975;45.02725;337;;Sancarlo;IT03999440013;_10090;Sangano;01/01/2005;Via Pinerolo Susa;_75;;
;7.23240987813709;45.050710698146901;338;;Alloa;IT05434010012;_10050;Coazze;01/01/2005;Piazza della Vittoria;_15;;
;7.30495118704236;45.024708926692199;339;;Reviglio;IT06478690016;_10094;Giaveno;01/01/2005;Via Stazione;_10;;
;7.4279;45.05133;340;;Ambrosio Dr. Andrea;IT09407480012;_10090;Reano;01/03/2010;Via Roma;_4;;
;6.79364558519542;44.953793141934099;341;;Pipino Snc Di Pipino Dott. Sandra Anna Carla E Dott. Tosi Sante;IT11246670019;_10054;Cesana Torinese;01/07/2017;Via Roma;_14;;
;7.31942616404951;45.114867984269999;342;;Di Condove Di Bianco Dr. Andrea;IT10694410019;_10055;Condove;01/07/2017;Via Cesare Battisti;_3;;
;7.14314128210059;45.138758792081703;343;;Garassino Snc Di Ternavasio Dott.ssa Elisabetta E C.;IT10425910014;_10053;Bussoleno;01/02/2016;Via Traforo;_25;;
;7.07633153826118;45.135036630006297;344;;Dell'asilo Snc Del Dott. Savigliano Davide E C.;IT09777460016;_10059;Susa;01/03/2013;Corso Inghilterra;_26;;
;6.98185061637356;45.118877894019803;345;;De Vetta;IT02640520017;_10050;Chiomonte;01/01/2005;Via Vittorio Emanuele II;_34;;
;6.731547284806;45.100727567877698;346;;Comunale;IT01933140012;_10052;Bardonecchia;01/01/2005;Piazza Don Vachet;_1;;
;6.79914565707797;45.0444929945632;347;;Galeasso;IT02284580012;_10056;Oulx;01/01/2005;Corso Montenero;_10;;
;7.14314128210059;45.138758792081703;348;;Roveri;IT02655140016;_10053;Bussoleno;01/01/2005;Via Traforo;_38;;
;6.87017758261122;45.017596684952899;349;;Tintinelli Romano Di Tintinelli Marco;IT03774160018;_10050;Sauze D'oulx;01/03/2013;Via Monfol;_15;;
;7.39209820667413;45.0749289687135;350;;Torre;IT04628750012;_10051;Avigliana;01/01/2005;Strada Moncenisio;_198;;
;7.2790203;45.10782825;351;;Farmacia Sant`antonino;IT11427060014;_10050;Sant'antonino Di Susa;01/03/2018;Via Torino;_147;;
;7.194215;45.141117;352;;Vair;IT04970610012;_10050;Bruzolo;01/01/2005;Via E. De Nicola;_12;;
;7.48575171805441;45.1063821035345;353;;Farmacia San Giorgio Di Neopharma S.a.s. Della Dott.ssa Chiellino Carlotta & C.;IT11668230011;_10040;Caselette;01/09/2017;Via Alpignano;_149/b;;
;7.41985299203489;45.070362099327802;354;;Illengo Sas Del Dr. Illengo Carlo E C.;IT10537280017;_10051;Avigliana;01/09/2011;Corso Laghi;_59;;
;7.35771015087434;45.098920363464501;355;;Farmacia Sant`ambrogio;IT11427060014;_10057;Sant'ambrogio Di Torino;01/03/2018;Via Umberto I;_2;;
;7.4324524;45.083307;356;;Ceirano;IT09252280012;_10090;Buttigliera Alta;01/01/2008;Corso Torino;_68;;
;7.07633153826118;45.135036630006297;357;;Canavoso Di Marchini Chiara E Pellegrino Luca S.a.s.;IT11531640016;_10059;Susa;01/07/2017;Piazza Trento;_15;;
;7.44619368492075;45.066900167918497;358;;Sirio;IT06610210012;_10090;Buttigliera Alta;01/01/2005;Corso Superga;_10;;
;7.26783240783833;45.113908956728999;359;;Rossi Snc Di Rossi Paolo E Silvia;IT06990010016;_10050;Borgone Susa;01/07/2017;Via Abegg;_43;;
;7.24663193634964;45.111902279856601;360;;Valsusa Di Pegoraro Marisa;IT08767700019;_10050;Villar Focchiardo;01/01/2008;Via Nazionale;_25;;
;7.047994;45.137368;361;;Moncenisio;IT02613870043;_10059;Susa;01/01/2005;Via Giuseppe Mazzini;_15/17;;
;7.2900717;45.1037819;362;;Farmacia Padre Pio Di Neopharma S.a.s. Della Dott.ssa Chiellino Carlotta & C.;IT11668230011;_10050;Vaie;01/09/2017;Via Martiri Della Libert?;_16/c;;
;7.41985299203489;45.070362099327802;363;;Savigliano;IT07575040014;_10051;Avigliana;01/03/2013;Corso Laghi;_187;;
;7.39191500310687;45.117298384184799;364;;Farmacia Vela Di Campese Valeria;IT11760780012;_10040;Rubiana;01/12/2017;Via Roma;_62;;
;6.70785103728283;45.077874331816098;365;;De Nicola;IT07867790011;_10052;Bardonecchia;01/01/2005;Via Medail;_59;;
;7.17071499073187;45.1666006099573;366;;Delle Rondini;IT07958390010;_10050;Chianocco;01/01/2005;Via Vernetto;_10;;
;7.30265185;45.114825;367;;San Michele;IT08024440011;_10050;Chiusa Di San Michele;01/01/2005;Via Susa;_13;;
;7.3431763467242;45.1182867182279;368;;Di Caprie;IT08012070010;_10040;Caprie;01/09/2010;Viale Kennedy;_33;;
;7.41991510361814;45.1181841938958;369;;Bianco;IT08075610017;_10040;Almese;01/10/2015;Via Milanere;_40;;
;7.0106568;45.1575183;370;;Della Betta;IT08060050013;_10050;Venaus;01/02/2008;Via Antica Reale;_27;;
;7.07603876361842;45.168856430797703;371;;Rocciamelone;IT08080040010;_10059;Mompantero;01/03/2013;fraz. San Giuseppe;_10;;
;7.06575592392068;45.1005988961032;372;;Farmacia Colle Delle Finestre Del Dr. Carta Mirko;IT11602350016;_10050;Meana Di Susa;01/07/2017;Via Terrazze;_2;;
;7.37876389270982;45.114777305973;373;;Santa Domenica;IT01118260015;_10040;Villar Dora;01/01/2005;Piazza Donatori di Sangue;_8;;
;7.39550536071291;45.117258200414803;374;;Omeopatica Macioci;IT08397820013;_10040;Almese;01/01/2008;Piazza Martiri della Liberta`;_8-9;;
;7.63068;45.12927;375;;Antica Regia Farmacia Di Fate Sas Del Dott. Tenivella Franco E C.;IT10994415001;_10078;Venaria;01/07/2017;Viale Buridani;_13;;
;7.57604;45.09623;376;;Azienda Speciale Multiservizi - F. 2;IT05846450012;_10078;Venaria;01/04/2007;Via Medici del Vascello;_2;;
;7.57604;45.09623;377;;Fioni;IT00552530016;_10078;Venaria;01/01/2005;Via Berino;_35;;
;7.57604;45.09623;378;;San Rocco;IT00547230011;_10078;Venaria;01/01/2005;Via Canale;_5/A;;
;7.57805945;45.129185;379;;Gastaldi Di Covir Snc Delle Dr.sse Oddone Chiara E Redoglia Vittoria;IT10838030012;_10040;Druento;01/07/2017;Via Torino;_15/1;;
;7.57604;45.09623;380;;Azienda Speciale Multiservizi - F. 1;IT07019840011;_10078;Venaria;01/03/2013;Viale Buridani;_56/A;;
;7.55389547765399;45.113867179526899;381;;Azienda Speciale Multiserivizi F.17;IT01299070019;_10044;Pianezza;01/01/2005;Via San Bernardo;_1;;
;7.53582102652679;45.141572115758599;382;;Antoniana;IT05505640010;_10040;San Gillio;01/01/2005;Viale Balbo;_3;;
;7.57604;45.09623;383;;Farmacia Comunale Asm F3;IT07019840011;_10078;Venaria;01/11/2016;Via L. da Vinci;_50;;
;7.55389547765399;45.113867179526899;384;;Centrale Sas Del Dr. Argano Guido;IT10005760011;_10044;Pianezza;01/03/2013;Piazza Leumann;_4/A;;
;7.57604;45.09623;385;;Azienda Speciale Multiservizi - F. 6;IT06663920012;_10078;Venaria;01/04/2007;Corso Toscana - C/O Citta' Merca;_;;
;7.49557888956948;45.160434219287197;386;;Gallo;IT07540620015;_10040;Givoletto;01/05/2016;Via Sandro Pertini;_2;;
;7.65989102755971;45.173948555243101;387;;Bertolone;IT09971080016;_10072;Caselle Torinese;01/10/2016;Via Torino;_62;;
;7.59175048855784;45.219673207023199;388;;Rei Sas Della Dr.ssa Maio Nicoletta E C.;IT10694390013;_10073;Cirie';01/07/2017;Via Vittorio Emanuele II;_130;;
;7.54320807100724;45.262581395664597;389;;Bonardi;IT00189850019;_10075;Mathi;01/01/2005;Via D. Borla;_7;;
;7.57496106046732;45.308608529157503;390;;Santa Caterina Di Impresa Sas Della Dr.ssa Bruzzone Patrizia E C.;IT10050900017;_10070;Rocca Canavese;01/02/2015;Piazza Osella;_12;;
;7.63576234020941;45.204496464072797;391;;Terrone D.ssa Terrone Elena;IT09127030014;_10077;San Maurizio Canavese;01/09/2007;Piazza Dott. Felice Odallo;_1;;
;7.65989102755971;45.173948555243101;392;;Dell'assunta;IT09468960019;_10072;Caselle Torinese;01/09/2010;Via G. Guibert;_4;;
;7.54761109422004;45.236693695352002;393;;S. Bernardo Di Pharmakeia Sas Della Dr.ssa Bonadi Silvia E C.;IT10187660013;_10070;Villanova Canavese;01/04/2010;Piazza IV Novembre;_19;;
;7.52858611233264;45.212568656030101;394;;Fiano Di Cima Snc Dei Dott.ri Cossolo Marco E Ramello Cinzia;IT10248420019;_10070;Fiano;01/08/2010;Via Borla;_14;;
;7.65989102755971;45.173948555243101;395;;Azienda Speciale Multiservizi - F. 4;IT07728160016;_10070;Caselle Torinese;01/04/2007;Strada Cuorgne`;_168;;
;7.6061832;45.239889299999987;396;;De Zan;IT09253680012;_10070;San Carlo Canavese;01/09/2010;Strada Cirie;_110;;
;7.67128657001106;45.145575828517003;397;;Bisciari;IT02397140019;_10071;Borgaro Torinese;01/01/2005;Via Cirie';_10;;
;7.56795686250806;45.243642186240301;398;;Paschero;IT04339710016;_10076;Nole;01/01/2005;Via Garibaldi;_4/6;;
;7.66075770436691;45.110181065885101;399;;Sant'andrea Di Dr.ssa Frescura Loredana;IT08528650016;_10071;Borgaro Torinese;01/01/2008;Via Lanzo;_156;;
;7.57833652704114;45.1904256862653;400;;San Gregorio;IT06101660014;_10070;Robassomero;01/08/2007;Via Anselmo Martini;_6;;
;7.59175048855784;45.219673207023199;401;;Sant' Agostino;IT06996830011;_10073;Cirie';01/01/2005;Via San Ciriaco;_22;;
;7.66666913336711;45.230000183967597;402;;Allocco Snc Dei Allocco Giorgio, Cristina Ed Elisabetta;IT10273100015;_10070;San Francesco Al Campo;01/06/2010;Via Torino;_63;;
;7.59175048855784;45.219673207023199;403;;F.cia De Magistris E Nebbia Di Caudera S.n.c.delladr.ssa Salvino Laura E C.;IT11638200011;_10073;Cirie';01/07/2017;Via Roma;_79-83;;
;7.66818672306203;45.273480122289399;404;;Del Castello Snc;IT03742960010;_10070;Front;01/04/2007;Via M. Perino;_1;;
;7.60095;45.22736;405;;Rossetti;IT07837010011;_10073;Cirie';01/01/2005;Via Rossetti;_7;;
;7.63820728075234;45.277855088514102;406;;San Pietro Di Alyma Snc Delle Dott.sse Alida Regini E Marcella Perrero;IT11279980012;_10070;Vauda Canavese;01/07/2017;Via Aldo Moro;_5;;
;7.60105685379454;45.320157867832997;407;;Carlotta;IT07192460017;_10070;Levone;01/04/2007;Piazza Giacoletto;_1;;
;7.59703336916616;45.237036089105104;408;;Dei Lauri;IT07019070015;_10073;Cirie';01/04/2007;Via Lanzo;_91/b;;
;7.56295261557222;45.266845219165397;409;;Grosso;IT10187660013;_10070;Grosso;01/02/2015;Strada Camporelle;_1;;
;7.62061436193201;45.294458465767597;410;;Ruggeri Sas Della Dr.ssa Bertino Antonella & C.;IT10093990017;_10070;Barbania;01/09/2009;Via T. Ferreri;_56;;
;7.377018;45.239128;411;;Bruno Sas Del Dott. Bruno Roberto & C.;IT09820420017;_10070;Viu';01/06/2008;Via Roma;_3;;
;7.38836800456101;45.3144159254446;412;;Alpina Di Races Snc Dei Dott. Ricaldone Paolo E Franco E Tantillo Egle;IT00549340016;_10070;Pessinetto;01/02/2015;Via Roma;_81/b;;
;7.533632;45.3123099;413;;Bottacini;IT10189370017;_10070;Corio;01/09/2010;Via Benso;_9;;
;7.51935104592569;45.276942411024898;414;;Gabutti;IT09253690011;_10070;Balangero;01/01/2005;Viale Copperi;_11;;
;7.36287738800972;45.320571539795097;415;;Ricaldone Di Races Snc Dei Dott.ri Ricaldone Paolo E Franco E Tantillo;IT05682260012;_10070;Ceres;01/02/2015;Piazza Europa;_35;;
;7.50815833063208;45.244386170823297;416;;Frassa' Snc Di Garassino Dott. Armanda & C.;IT03090420013;_10070;Cafasse;01/02/2015;Via Torino;_4;;
;7.48015328117874;45.2754083730944;417;;Della Torre Della Dr.ssa Barchet Barbuse Lucia;IT11181580017;_10074;Lanzo Torinese;01/07/2017;Via Umberto I;_54;;
;7.476655;45.273243;418;;Antica Farmacia Bruno Di Giulini Dott. Simone;IT11160650013;_10074;Lanzo Torinese;01/07/2017;Via Cibrario;_33;;
;7.48015328117874;45.2754083730944;419;;Santa Croce Pharma Cross Snc Del Dr. De Tommaso Domenico E C.;IT11286220014;_10074;Lanzo Torinese;01/07/2017;Via XI Settembre 2001;_;;
;7.45644884244833;45.2523388426496;420;;Germagnano Di Rivotti E Tamaddon Snc;IT07375300014;_10070;Germagnano;01/09/2010;Via Celso Miglietti;_33 B;;
;7.38836800456101;45.3144159254446;421;;Santa Cristina;IT07617480012;_10070;Cantoira;01/07/2017;Via Roma;_30;;
;7.28231123899146;45.306841175021503;422;;San Sebastiano Snc Di Scuzzarella Dott. Rocco & C.;IT11472560017;_10070;Ala Di Stura;01/07/2017;Piazza Centrale;_21;;
;7.497818;45.22399;423;;Vallo Snc Di Dott.ssa Beccaris Chiara E Dott. Carozzi Matteo E C.;IT10839760013;_10070;Vallo Torinese;01/07/2017;Via Monasterolo;_4a;;
;7.41998713312006;45.262218844663899;424;;Cavallero;IT07501130012;_10070;Traves;01/04/2007;Piazza Caduti;_1;;
;7.36659619210796;45.2820054256822;425;;Vella;IT02274910849;_10070;Mezzenile;01/07/2017;Via Villa Inferiore;_104;;
;7.46567492895027;45.325175789413599;426;;Chimica Erboristeria Coassolese Di Ferro Anna Maria E Commisso Massimo;IT08529220017;_10070;Coassolo Torinese;01/01/2008;Via Capoluogo;_200;;
;7.77139979049952;45.145668076026197;427;;San Giuseppe Coppo Manacorda Di Coppo Dott. A. M. E Coppo Dott. M. L.;IT08593780011;_10036;Settimo Torinese;01/01/2008;Piazza Vittorio Veneto;_16;;
;7.78412290763879;45.146923847213003;428;;San Luca Dr.ssa Zoppo Laura;IT06320200014;_10036;Settimo Torinese;01/10/2010;Via Milano;_29;;
;7.77139979049952;45.145668076026197;429;;Rasino Del Dott. Rasino Stefano;IT10629360016;_10036;Settimo Torinese;01/07/2017;Via Consolata;_9/a;;
;7.78650410107046;45.232082447181199;430;;Dolce Baudino Dal 1887 Della Dr.sa Laura Bracco;IT10575820013;_10080;San Benigno Canavese;01/11/2011;Via Re Umberto;_14;;
;7.76793495;45.1360348;431;;Centrale;IT04515810010;_10036;Settimo Torinese;01/01/2005;Via Italia;_18;;
;7.74694977284601;45.1551917352229;432;;Santa Maria;IT04748700012;_10036;Settimo Torinese;01/01/2005;Via Leini';_37/bis;;
;7.76793495;45.1360348;433;;Del Peso Della Dr.ssa Cravini Antonella;IT11326380018;_10036;Settimo Torinese;01/07/2017;Via Italia;_94;;
;7.77139979049952;45.145668076026197;434;;Carpani Sas Del Dott. Colloca Giuseppe E C.;IT10969720019;_10036;Settimo Torinese;01/07/2017;Via Regio Parco;_11;;
;7.77139979049952;45.145668076026197;435;;Plassio;IT07288040012;_10036;Settimo Torinese;01/01/2005;Via Fantina;_17/B;;
;7.71520819944667;45.180024492941399;436;;Dell`ospedale Di Salzotto Paolo Maria;IT07361090017;_10040;Leini;01/01/2008;Via Carlo Alberto;_121;;
;7.77139979049952;45.145668076026197;437;;Regio Parco;IT07892250015;_10036;Settimo Torinese;01/01/2005;Via Regio Parco;_. 43;;
;7.77019;45.14805;438;;Santa Chiara Di Saglia Andreina;IT10431980019;_10036;Settimo Torinese;01/03/2011;Via Cascina Nuova;_31 b;;
;7.77139979049952;45.145668076026197;439;;San Mauro Di Cammarata Daniela Patrizia;IT08066310015;_10036;Settimo Torinese;01/02/2016;Via San Mauro;_45;;
;7.81550674360069;45.1890315112162;440;;Degli Angeli Snc Delle Dott.sse Bianco Laura E Blencio Paola Clotilde;IT08137490010;_10088;Volpiano;01/01/2008;Via Brandizzo;_27;;
;7.7148104;45.1819788;441;;Sant'alberto;IT08235040014;_10040;Leini;01/01/2005;Via Vallino;_10;;
;7.7838337089229;45.194517434989201;442;;Sant'anna Snc Di Pierino E Flavio Boggione;IT08473840018;_10088;Volpiano;01/03/2013;Corso Regina Margherita;_17;;
;7.75739360437982;45.103381564993498;443;;Oltre Po Sas Del Dott. Valperga Francesco E C.;IT10628810011;_10099;San Mauro Torinese;01/07/2017;Via Roma;_4;;
;7.83827222171221;45.117720610722699;444;;Maffei;IT01760210011;_10090;Gassino Torinese;01/01/2005;Corso Italia;_29;;
;7.8557028813831;45.152135619679697;445;;Paglia Sales Di Sales Dott.ssa Susanna;IT11360760018;_10090;San Raffaele Cimena;01/07/2017;Piazza Moie;_1;;
;7.83827222171221;45.117720610722699;446;;Ternavasio Sas Del Dott. Ternavasio Pietro E Figlie;IT10628070012;_10090;Gassino Torinese;01/07/2017;Via Chivasso;_2/A;;
;7.76019139422962;45.098456245381399;447;;Farmacia Sant'anna Di Bezzo Riccardo;IT10009330019;_10099;San Mauro Torinese;01/11/2016;Via Torino;_36;;
;7.81638;45.12122;448;;Borca;IT03877980015;_10090;Castiglione Torinese;01/01/2005;Via Caudana Mario;_9;;
;7.7623381;45.099241199999987;449;;San Mauro Di Marietta Goccio Anna Luisa;IT10997270011;_10099;San Mauro Torinese;01/07/2017;Via Martiri Liberta';_14;;
;7.87608170568302;45.0989381546187;450;;Bresso Di Bresso Dr.ssa Cinzia;IT10094030011;_10090;Sciolze;01/09/2009;Via Aie;_2;;
;7.76567984635732;45.103242453278398;451;;Sambuy;IT00042190017;_10099;San Mauro Torinese;01/04/2007;Via Rivodora;_2;;
;7.89032685468277;45.1902826793945;452;;Fassola Snc;IT10400960018;_10034;Chivasso;01/03/2011;Via Torino;_36;;
;7.82309824371495;45.267295951686201;453;;Farmacia Sandretto S.a.s. Di Balestra D.ssa Chiara;IT11616230014;_10090;Foglizzo;01/07/2017;Via Umberto I;_64;;
;7.8535708;45.2322813;454;;Nuova Farmacia Di Bruna Mondino E C. Sas;IT11579540011;_10017;Montanaro;01/07/2017;Piazza Luigi Massa;_19;;
;7.89595659609261;45.205867520014202;455;;San Francesco S.a.s. Del Dr. Valperga Francesco & C.;IT10420080011;_10033;Chivasso;01/03/2011;Via Casale;_11;;
;7.83443183448114;45.173634692047898;456;;Belluati Antonello;IT10689160017;_10032;Brandizzo;01/07/2017;Via Torino;_130;;
;7.89032685468277;45.1902826793945;457;;Croce Del Dr. Demarchis Ernesto;IT09053430014;_10034;Chivasso;01/01/2008;Via Torino;_50;;
;7.97891045640988;45.219007194830901;458;;Monaco;IT02236400012;_10037;Torrazza Piemonte;01/01/2005;Piazza Municipio;_6;;
;7.89032685468277;45.1902826793945;459;;Amione Snc Di Amione Dott. Gianfranco E C.;IT09328250015;_10034;Chivasso;01/01/2008;Via Torino;_74/c;;
;7.96080088228057;45.246334603599003;461;;David;IT05143780012;_10030;Rondissone;01/01/2005;Piazza Roma;_6;;
;8.062131214975571;45.151840564359503;463;;Bellone Snc Di Bellone Carlo E Gaia Maurizio;IT10259640018;_10020;Brusasco;01/06/2010;Via Martiri Liberta`;_101;;
;7.89032685468277;45.1902826793945;464;;Moderna Snc Di Bozzola G. E C.;IT07059810015;_10034;Chivasso;01/01/2008;Via Torino;_15;;
;7.93569358061368;45.129578176211297;465;;Del Castello Cagia Cosimo;IT07248460011;_10020;Casalborgone;01/01/2008;Piazza Cavour;_8;;
;7.89595659609261;45.205867520014202;466;;Semeria;IT07318200016;_10034;Chivasso;01/01/2005;Via Favorita;_34;;
;7.83443183448114;45.173634692047898;468;;Saroglia;IT07868230017;_10032;Brandizzo;01/01/2005;Via Volpiano;_68;;
;7.89275959947501;45.162587139388798;469;;Sant'anna;IT03181530019;_10090;Castagneto Po;01/09/2010;Via Roma;_5;;
;7.957348;45.168568;470;;San Sebastiano Snc Dei Dottori Massimo Capozzi E Laura Riggio;IT11401650012;_10020;San Sebastiano Da Po;01/07/2017;Via Chivasso;_5/a;;
;8.051176;45.152966;471;;Spano';IT00233630011;_10020;Cavagnolo;01/04/2007;Via C. Colombo;_205;;
;7.98533426294654;45.198089640371698;472;;San Pietro Sas D.ssa Mantii Anna Rita & C.;IT11487540012;_10038;Verolengo;01/07/2017;Via C. Delio Verna;_21;;
;7.98942073790589;45.152980739167297;473;;Bressa;IT02266710306;_10020;Lauriano;01/05/2016;Via Cocconato;_1;;
;7.76586376269352;44.9698903450115;475;;Centrale Dei Dottori Aggeri Marco E Vellano Armando;IT10791170011;_10020;Cambiano;01/07/2017;Corso O. Lisa;_5/bis;;
;7.82309324777757;45.011532316279798;476;;Comunale 2 Di Chierifarma Srl;IT09199470015;_10023;Chieri;01/09/2010;Piazza Duomo;_2;;
;7.77259685;44.95015745;477;;Farmacia Cavour Dr.ssa Ollina Dina;IT08721760018;_10026;Santena;01/09/2007;Via Tana;_6;;
;7.82779642605646;45.003580984699902;478;;Claretti Pacioni;IT00582490017;_10023;Chieri;01/03/2013;Viale Fasano;_14;;
;7.7495663;45.0173969;479;;Del Pietro Snc Di Del Pietro Ercole E Figli;IT09249680019;_10020;Pecetto Torinese;01/09/2010;Via Umberto I;_29;;
;7.825272;45.0111688;480;;Farmacia Regis S.n.c. Di Regis Dr.ssa Antonella & C.;IT11576910019;_10023;Chieri;01/07/2017;Corso Vittorio Emanuele II;_50;;
;7.82779642605646;45.003580984699902;481;;Comunale 1 Di Chierifarma Srl;IT09199470015;_10023;Chieri;01/09/2010;Via Amendola;_6;;
;7.78295493341732;44.944204036243597;482;;Grella Alessandra;IT10791310013;_10026;Santena;01/07/2017;Via F. Cavagli?;_1;;
;7.81352100647896;45.069138268657703;483;;Baldissero Di Berruti Dott. Alessandra Laura;IT11493770017;_10020;Baldissero Torinese;01/07/2017;Via Roma;_14/b;;
;7.88883536524737;44.979426835888297;484;;Centrale Di Am 2013 Snc Del Dr. Aggeri Marco E C.;IT11012800014;_10020;Riva Presso Chieri;01/07/2017;Via Canta;_4;;
;7.84275442837174;44.9026010935331;485;;Basso;IT05648420015;_10046;Poirino;01/01/2005;Via Amaretti;_4;;
;7.82096634664768;45.014492077516401;486;;Piazza;IT05758820012;_10023;Chieri;01/01/2005;Via Vittorio Emanuele II;_33/c;;
;7.8244055;45.01175365;487;;Burzio;IT09253700018;_10023;Chieri;01/09/2010;Via XX Settembre;_1;;
;7.84275442837174;44.9026010935331;488;;San Carlo;IT06456960019;_10046;Poirino;01/01/2005;Piazza Italia;_12;;
;7.83536795;45.00571785;489;;Santa Croce Di Pharma Cross Snc;IT11286220014;_10023;Chieri;01/07/2017;Via Riva;_19/B;;
;7.89732477714595;44.852946777733102;490;;Scaglia;IT06946430011;_10040;Pralormo;01/01/2005;Via Alba;_4;;
;7.77765555597222;45.044289067546003;491;;Azienda Spec. Multiservizi F.7;IT05505640010;_10025;Pino Torinese;01/04/2007;Via Chieri;_62;;
;7.77203595832696;45.043537307071098;492;;Carlone;IT07790370014;_10025;Pino Torinese;01/01/2005;Via Roma;_37;;
;7.89114924414956;45.012105742692597;493;;Musso;IT07988440017;_10020;Arignano;01/09/2010;Via Borgo Nuovo;_13;;
;7.84148;44.96561;494;;Aliberti;IT08073470018;_10020;Chieri;01/09/2010;Piazza Luigi Rossi;_1;;
;7.873469;45.0586409;495;;Oberto;IT08079520014;_10020;Marentino;01/01/2008;Via Roma;_22;;
;7.96200644482997;45.042133747110697;498;;San Martino Snc Dr.bruna C E Ricca D.;IT01287740052;_14021;Buttigliera D'asti;01/03/2013;Via Vittorio Emanuele;_16;;
;7.85860813966213;45.031101980958198;499;;San Rocco Orlandi F.;IT00951820018;_10020;Andezeno;01/01/2008;Via Chieri;_8;;
;7.7221603124925;44.849682408941099;500;;Amedei Snc Di Giancarlo E Giorgio Amedei;IT08143470014;_10022;Carmagnola;01/09/2010;Via XX Settembre;_1;;
;7.66470250914537;44.851670177587302;501;;Cossolo Sas Del Dr. Cossolo Marco & C.;IT09478850010;_10041;Carignano;01/03/2013;Via Salotto;_6/8;;
;7.59005;44.83176;502;;Pugnetti Di Pugnetti Dott. Luca;IT11435460016;_10060;Pancalieri;01/07/2017;Via Principe Amedeo;_22;;
;7.66470250914537;44.851670177587302;503;;Borgo Vecchio;IT09901600016;_10022;Carmagnola;01/09/2010;Via Fratelli Vercelli;_1;;
;7.66470250914537;44.851670177587302;504;;Don Bosco;IT05266490019;_10022;Carmagnola;01/01/2005;Via Chieri;_2/a;;
;7.56676201107865;44.894785821023703;505;;Degli Angeli;IT10046950019;_10060;Castagnole Piemonte;01/09/2009;Piazza Vittorio Emanuele II;_4;;
;7.66470250914537;44.851670177587302;506;;Pozzati S.n.c. Di Albarello Andrea & C.;IT11553790012;_10041;Carignano;01/07/2017;Piazza Carlo Alberto;_1;;
;7.66470250914537;44.851670177587302;507;;San Bernardo;IT03151330010;_10022;Carmagnola;01/01/2005;Strada del Porto;_171/a;;
;7.60351636106138;44.920602627776802;508;;San Giuseppe;IT05526890016;_10040;Piobesi Torinese;01/01/2005;Corso Italia;_15/A;;
;7.71958743496304;44.846090036323403;509;;Appendino;IT07728160016;_10022;Carmagnola;01/01/2005;Via Valobra;_149;;
;7.63599833266905;44.843981004607699;510;;Lanzotti;IT07980500016;_10040;Lombriasco;01/01/2005;Via San Giovanni Bosco;_5;;
;7.60435;44.87185;511;;Fuoco;IT08041400014;_10040;Osasio;01/09/2010;Via Torino;_41;;
;7.74052;44.92227;512;;Comunale 03 Di Chierifarma Srl;IT09199470015;_10029;Villastellone;01/07/2017;Piazza Libert?;_8;;
;7.70255570420877;44.988369965211199;513;;Maldini Delle Dr.sse Martignoni Snc;IT08756900018;_10024;Moncalieri;01/04/2008;Piazza Vittorio Emanuele II;_1;;
;7.70212061466425;44.997954974360297;514;;Castelvecchio Snc Di Andrea Paracchi E Carlo Pernigotti;IT10321560012;_10024;Moncalieri;01/10/2010;Strada Genova;_193;;
;7.6704333;44.9800832;515;;Premi;IT06033230019;_10024;Moncalieri;01/07/2017;Strada Carignano;_72;;
;7.70255570420877;44.988369965211199;516;;Superga Di Farmacie Pesce Di Pesce Marco, Pesce Edilio & C. Sas;IT10049120016;_10024;Moncalieri;01/02/2015;Via Cristoforo Colombo;_2;;
;7.75115807928312;44.981087935758602;517;;Sant' Alberto;IT03742960010;_10028;Trofarello;01/01/2005;Via Cosmonauti;_2;;
;7.67493388150507;45.003544565352897;518;;Santa Maria;IT04674280013;_10024;Moncalieri;01/01/2005;Corso Roma;_24;;
;7.70255570420877;44.988369965211199;519;;Ceriana Russo;IT08659070018;_10024;Moncalieri;01/01/2008;Strada Carignano;_13;;
;7.70255570420877;44.988369965211199;520;;Parizia;IT05369000012;_10024;Moncalieri;01/01/2005;Via Tenivelli;_3/A;;
;7.73786643501108;44.982138811872296;521;;Trisoglio Snc Del Dr. Cassinelli Roberto E C.;IT09570390014;_10028;Trofarello;01/01/2008;Via Roma;_2;;
;7.70255570420877;44.988369965211199;522;;San Martino Della Dr.ssa Giannantoni Laura;IT10768600016;_10024;Moncalieri;01/07/2017;Via Beria;_3;;
;7.67493388150507;45.003544565352897;523;;Borgo Navile Di Farmacie Pesce Di Pesce Marco, Pesce Edilio & C. Sas;IT10049120016;_10024;Moncalieri;01/02/2015;Corso Roma;_45/6;;
;7.6600294;45.0137267;524;;San Pietro;IT06720820015;_10024;Moncalieri;01/01/2005;Via Sestriere;_30;;
;7.6756948006144;44.953456792565397;525;;Storica La Loggia Di Galenica Snc Dei Dr.i Villata F. E Galletto F.;IT11037270011;_10040;La Loggia;01/07/2017;Viale Martiri Della Libert?;_4;;
;7.70212061466425;44.997954974360297;526;;Magnani;IT07106700011;_10024;Moncalieri;01/01/2008;Strada Genova;_47;;
;7.65316251592759;45.000335468676802;527;;Santa Monica;IT07522370019;_10024;Moncalieri;01/03/2013;Strada Torino;_71;;
;7.70212061466425;44.997954974360297;528;;Moriondo Di Eurofarmacia Sas Del Dott. Torgani Roberto;IT07532350019;_10024;Moncalieri;01/01/2008;Strada Genova;_264;;
;7.67493388150507;45.003544565352897;529;;San Matteo;IT07687620018;_10024;Moncalieri;01/01/2005;Corso Roma;_91;;
;7.70255570420877;44.988369965211199;530;;De Grazia Di Fabrizia Actis Dato;IT07886350011;_10024;Moncalieri;01/07/2017;Strada Stupinigi;_14;;
;7.64631883577403;44.994531003487197;531;;Farmacia Dallocchio Di Albireo Sas Di Amateis Giovanni & C.;IT11757440018;_10042;Nichelino;01/11/2017;Via Torino;_137;;
;7.62394737692459;44.990121318930299;532;;Comunale 1;IT01131720011;_10042;Nichelino;01/01/2005;Via Moncenisio;_38/5;;
;7.64631883577403;44.994531003487197;533;;Della Stazione Borello Claudio;IT05167390011;_10042;Nichelino;01/01/2005;Via Torino;_224;;
;7.64764334087483;45.003293856149597;534;;Sant'edoardo;IT02249860020;_10042;Nichelino;01/09/2010;Via Michelangelo Buonarroti;_1;;
;7.54895435062699;44.940075082937398;535;;San Lorenzo Di Mondino Dott. Stefano;IT10323120013;_10060;None;01/12/2010;Via Pellico;_1;;
;7.63198;45.00177;536;;Debouche' Garino Michelino;IT01117550051;_10042;Nichelino;01/01/2005;Largo delle Alpi;_16;;
;7.6341886;44.9474905;537;;Cavallera Snc Del Dotto Antonio Cavallera E C.;IT09822700010;_10048;Vinovo;01/06/2008;Via S.G. Cottolengo;_42;;
;7.62394737692459;44.990121318930299;538;;Comunale 2;IT01131720011;_10042;Nichelino;01/07/2012;Piazza A. Moro;_50;;
;7.57834408281409;44.9639671824429;539;;San Carlo Di  Stefano Spirito & C. S.a.s.;IT07160590019;_10060;Candiolo;01/01/2008;Via Torino;_8;;
;7.64631883577403;44.994531003487197;540;;Farmacia Erbetta Di Albireo Sas Di Amateis Giovanni & C.;IT11757440018;_10042;Nichelino;01/11/2017;Via Torino;_106;;
;7.64631883577403;44.994531003487197;541;;Sangone Snc Di Ranza Donatella E Grilli Silvia;IT07192460017;_10042;Nichelino;01/09/2010;Via Torino;_20/c;;
;7.62897093054453;44.9553835791233;542;;San Martino;IT07809910015;_10048;Vinovo;01/07/2017;Piazza Luigi Rey;_22;;
;7.65688963363641;44.991774948320497;543;;Farmacia Largo Giusti S.r.l.;IT10198770017;_10042;Nichelino;01/03/2018;Via Giusti;_56;;
;7.544414113598;44.934673470752799;544;;Moretto Chimica;IT07978820012;_10060;None;01/01/2008;Via Roma;_65;;
;7.67843095;44.9990886;545;;Della Crociera;IT06412940014;_10042;Nichelino;01/01/2005;Via Martiri della Liberta';_4;;
;7.61709;44.97058;546;;Dell'ippodromo;IT08157560015;_10048;Vinovo;01/09/2010;Viale Francia;_1/6;;
;7.763982;45.2641599;547;;Rivelli;IT09346660013;_10080;Bosconero;01/01/2008;Via Nigra;_42;;
;7.58369862808366;45.345109175856798;548;;Santa Maria Snc;IT10090280016;_10084;Forno Canavese;01/10/2010;Via Levone;_2/bis;;
;7.72524356857195;45.332892097307003;549;;Garelli Snc Dei Dr.i Garelli Enrico, Chiara E Francesco;IT09712660019;_10086;Rivarolo Canavese;01/02/2015;Via Ivrea;_61;;
;7.41062199537998;45.436307259236898;550;;San Luca Della D.ssa Cappato Barbara Sara & C.;IT11379780015;_10080;Locana;01/09/2015;Via Roma;_79;;
;7.6589281;45.3697864;551;;Vallero;IT00182400010;_10087;Valperga;01/03/2013;Via Giuseppe Mazzini;_38;;
;7.6557211;45.3963888;552;;Rosboch Dr.ssa Rosangela;IT09002980010;_10082;Cuorgne';01/01/2008;Piazza Resistenza;_4;;
;7.54332;45.41363;553;;Bertoldo;IT01980800013;_10080;Sparone;01/01/2005;Via Locana;_68;;
;7.63213221129779;45.399677677767698;554;;Bertotti Di Bertotti Silvia;IT09730800019;_10082;Cuorgne';01/02/2015;Via Garibaldi;_20;;
;7.58411094331068;45.433136176406599;555;;Farmacia Brannetti;IT11565580013;_10085;Pont-canavese;01/07/2017;Via Roscio;_6;;
;7.58411094331068;45.433136176406599;556;;Corbiletto;IT03742270014;_10085;Pont-canavese;01/01/2005;Piazza Craveri;_4;;
;7.72524356857195;45.332892097307003;557;;Centrale Snc Di Lerda Maria;IT02718970011;_10086;Rivarolo Canavese;01/01/2005;Via Ivrea;_5;;
;7.72717715598974;45.2348817968726;558;;S. Serena Di Grosso Dott. Serena;IT03637920012;_10040;Lombardore;01/03/2013;Via Torino Beltrama;_16;;
;7.75845459743371;45.2953931933666;559;;Antonini Monica;IT06315810017;_10080;Feletto;01/01/2005;Via Rosario;_20/C;;
;7.63213221129779;45.399677677767698;560;;Antica Vasario;IT06752190014;_10082;Cuorgne';01/01/2005;Piazza Boetto;_1;;
;7.691825;45.331178;561;;Babando;IT06758550013;_10083;Favria;01/01/2005;Via Caporal Cattaneo;_9;;
;7.63178558231577;45.326579121583201;562;;San Pietro Di Roma Sas Del Dr. Raviolo Roberto E C.;IT10549120019;_10080;Rivara;01/03/2013;piazza Gozzano;_1;;
;7.690188;45.357477;563;;Amato;IT08976390016;_10080;Salassa;01/01/2008;Via Matteotti;_8;;
;7.66064;45.32917;564;;D'auria;IT07989050013;_10080;Busano;01/01/2008;Via Circonvallazione;_47;;
;7.49801954704518;45.507508537897699;565;;San Giuseppe Mazza Giuseppe;IT03974380879;_10080;Ronco Canavese;01/09/2010;Via Roma;_8;;
;7.8723079;45.4646688;566;;Farmacia Dora Snc;IT09277470010;_10015;Ivrea;01/03/2016;Corso Costantino Nigra;_33;;
;7.82177850111116;45.482483892366503;567;;San Giorgio Di Lvr Farma Sas- Dr.ssa Lo Verde Giuseppina Patrizia E C.;IT10613890010;_10010;Lessolo;01/07/2017;Via Vittorio Veneto;_204;;
;7.85662582544032;45.567752496258997;568;;Antica Farm.di Settimo Di Am.pharm Snc Di Fiscella A.maria E Jon G.;IT10970470018;_10010;Settimo Vittone;01/07/2017;Strada Statale 26;_27;;
;7.90510394048114;45.478679878921596;569;;Orlacchio Cimadamone Claudia;IT05331560010;_10010;Cascinette D'ivrea;01/09/2010;Via Crotta;_110;;
;7.87837377264312;45.469411761126501;570;;Borgo Nuovo;IT02099480010;_10010;Banchette;01/03/2013;Via Circonvallazione;_4A-4B;;
;7.77589080428017;45.3658976631068;571;;Ducale Di Boltro Dr. Maria Ausilia;IT02108460011;_10011;Aglie';01/02/2015;Via Principe Amedeo;_16;;
;7.99422379227706;45.425504690463697;572;;D'azeglio Snc Di Piovera Giorgio, Piovera Paolo E. E Luccioni Rosa M.g;IT11093440011;_10010;Azeglio;01/07/2017;Via Roma;_34/a;;
;7.96062937221294;45.399717439520103;573;;Nebuloni Sas Di Nebuloni Dott. Franco E C.;IT11428920018;_10010;Caravino;01/07/2017;Capitano Saudino;_2;;
;7.90414124119172;45.497842475526298;574;;Fiscella Di A.m.pharm Snc Dei Dr.i Fiscella Annamaria E Jon Gianluca;IT10970470018;_10010;Chiaverano;01/07/2017;Corso Centrale;_6;;
;7.85031335650078;45.514128201124898;575;;Pernigotti;IT04747770016;_10013;Borgofranco D'ivrea;01/01/2005;Via Torino;_21;;
;7.71576259804567;45.404678649091601;576;;Garelli Snc;IT09712660019;_10081;Castellamonte;01/07/2017;Via P. Educ;_52;;
;7.86255718462062;45.493460185170001;577;;Cimadamore;IT08744430011;_10016;Montalto Dora;01/01/2008;Via Ivrea;_75;;
;7.77824832260333;45.557001641786698;578;;San Marco;IT05501310014;_10010;Quincinetto;01/01/2005;Via Piemonte;_6;;
;7.70895650625595;45.386346378849801;579;;Mazzini;IT05780670013;_10081;Castellamonte;01/03/2013;Via Massimo D'Azeglio;_3;;
;7.874797;45.4673791;580;;Antica Farmacia Dell'ospedale Di Gaida Dott. Mario Giovanni E C. Snc;IT06374550017;_10015;Ivrea;01/01/2005;Corso Vercelli;_113;;
;7.87742959934522;45.4598005407776;581;;Piovera Di Piovera Dott. E. E C. Snc;IT06374360011;_10015;Ivrea;01/01/2005;Via  Torino;_150;;
;7.874797;45.4673791;582;;F.cia Rocchietta Snc Di Rocchietta Gabriella E C.;IT06374510011;_10015;Ivrea;01/01/2017;Corso D`Azeglio;_24;;
;7.94396341256463;45.4318064659738;583;;San Luca Della Dott.ssa Cappato Barbara Sara & C.;IT11379780015;_10010;Albiano D'ivrea;01/07/2017;Corso Vittorio Emanuele II;_47;;
;7.94873695903967;45.466326698639897;584;;Beata Getto;IT07255630019;_10012;Bollengo;01/01/2008;Via Statale;_13;;
;8.005777;45.448289;585;;Baroli;IT07441230013;_10010;Piverone;01/01/2008;Via Flecchia;_51;;
;7.87837377264312;45.469411761126501;586;;Stragiotti Sncdeu Dr.i Orlando A. M., Fasano L. E  Baresi C.;IT07539090014;_10015;Ivrea;01/03/2013;Via Circonvallazione;_28/B;;
;7.7385371402836;45.473355862439199;587;;Querio;IT06377940017;_10010;Rueglio;01/04/2007;Piazza Municipio;_1;;
;7.70283203964691;45.5256923964699;588;;Ubertallo;IT07814320011;_10080;Vico Canavese;01/01/2005;Via Novareglia;_10;;
;7.85491573451463;45.440725323731002;589;;Travaglini;IT07875860012;_10018;Pavone Canavese;01/03/2013;via circonvallazione;_100;;
;7.88594836004865;45.546136254519197;590;;Di Andrate;IT04674280013;_10010;Andrate;01/04/2007;Via Aosta;_6/2;;
;7.92729578866996;45.483836550236902;591;;San Camillo;IT07993150015;_10010;Burolo;01/09/2010;S.S.del Lago di Viverone 228;_3;;
;7.94038765504808;45.388970357355703;592;;De Bernardinis;IT08017330013;_10030;Vestigne';01/10/2011;Via Vittorio Emanuele II;_73/b;;
;7.99097114310156;45.387402742975397;593;;Dell'ospedale;IT03151320011;_10031;Borgomasino;01/01/2005;Via Torino;_43;;
;7.77518230201243;45.466205416553699;594;;Presbitero Bracco;IT09832510011;_10010;Alice Superiore;01/06/2008;Strada Provinciale Valchiusella;_2/2;;
;7.79612491137596;45.422907872114699;595;;Parella Di Farmacie Schiavon Di Dott.ssa Schiavon Alessandra E C.;IT11138120016;_10010;Parella;01/07/2017;Via Provinciale;_6;;
;7.8712771188716;45.465907340874701;596;;Linda Sas Di Ravetto Enri & C.;IT08416190018;_10015;Ivrea;01/01/2008;Piazza Gioberti;_22;;
;7.767874;45.440756;597;;Vistrorio Di Farmacie Schiavon Di Dott.ssa Schiavon Alessandra E C.;IT11138120016;_10080;Vistrorio;01/07/2017;Via Duchessa Isabella;_12;;
;7.81086;45.4421;598;;Lvr Farma S.a.s.  Della Dr.ssa Lo Verde Giuseppina Patrizia E C.;IT10613890010;_10010;Loranze';01/07/2017;Piazza Della Libert?;_1/c;;
;7.87716026462942;45.4669831761503;599;;Fasano Snc Dei Dr.i Fasano Franco E Ambrois Paolo;IT08540880013;_10015;Ivrea;01/01/2008;Via Palestro;_6;;
;7.897421876323;45.330435473120502;600;;Pierucci;IT00765990015;_10010;Candia Canavese;01/01/2005;Via Aosta;_3;;
;7.93889801633564;45.342777435490497;601;;Farmacia Valle Di Valle D.ssa Michela E C. Sas;IT11037460018;_10030;Vische;01/02/2018;Via L. Amione;_40;;
;7.93998969534423;45.284201019687302;602;;Farmacia Bel.la Di Mazz?;IT11852110011;_10035;Mazze';01/04/2018;Piazza Repubblica;_1;;
;7.80015118771898;45.321500108462601;603;;Calleri;IT05206130014;_10090;San Giorgio Canavese;01/01/2005;Via Vigna;_13;;
;7.889018;45.3069184;604;;San Domenico Di Vimar Sas Della Dr.ssa Vietti Michelina Anna Rina E C.;IT11399140018;_10014;Caluso;01/07/2017;Via Bettoia;_70;;
;7.8905945;45.307506;605;;San Domenico Di Vimar Sas Della Dr.ssa Vietti Michelina Anna Rina E C.;IT11399140018;_10014;Caluso;01/07/2017;Via Roma;_2;;
;7.87040105638814;45.385876507797299;606;;San Solutore Snc Dei Dr.i Garelli Chiara E Francesco Maria E Trione B.;IT09870240018;_10090;Romano Canavese;01/09/2010;Viale Guglielmo Marconi;_66;;
;7.8813189485006;45.383794092054899;607;;Fabbi;IT06465780010;_10019;Strambino;01/01/2005;Via Piemonte;_13;;
;7.80744937632042;45.298083701135802;608;;Sant'anna Di Debilio M. & C. Snc;IT07279240019;_10090;San Giusto Canavese;01/09/2010;Via Liberta';_1;;
;7.7952297;45.3354087;609;;Genovese;IT07579250015;_10090;San Giorgio Canavese;01/01/2008;Via Carlo Alberto;_5;;
;7.81497387303407;45.394594189548897;610;;San Martino;IT08002070012;_10010;San Martino Canavese;01/01/2005;Via Roma;_17;;
;7.835287;45.337113;611;;Russo;IT08002520016;_10090;Montalenghe;01/10/2011;Via Ivrea;_1;;
;7.97568534577354;45.292584732344103;612;;Santa Marta Della Dott.ssa Prono Elisa;IT11579780013;_10030;Villareggia;01/03/2018;Via Della Piazza;_12;;
;7.880173;45.361102;613;;Santa Maria Maddalena;IT08096170017;_10010;Mercenasco;01/01/2008;Via Nazionale;_50;;
;7.18802245625562;44.982105404361398;615;;Bagliani;IT04971620010;_10063;Perosa Argentina;01/01/2005;Piazza Guglielmo Marconi;_6;;
;7.24713852220162;44.967549350392297;616;;Piton Santiano Sas Di Chiara Piton;IT10067020015;_10060;Pinasca;01/05/2013;Via Nazionale;_34;;
;7.18802245625562;44.982105404361398;617;;Termini;IT06930880015;_10063;Perosa Argentina;01/01/2005;Via Umberto I^;_1;;
;6.879868;44.956868;618;;F.cia Jayme Di Jayme Marta Giuseppina;IT11689540018;_10058;Sestriere;01/07/2017;Piazza Agnelli;_1/B;;
;7.23913948089715;44.900361459494;619;;Tron;IT01109100014;_10065;San Germano Chisone;01/03/2013;Piazzetta dell'Orso;_2;;
;6.94616465816381;44.983546626757999;620;;Rua' Di Lantelme Antonella;IT09123980014;_10060;Pragelato;01/01/2005;Viale IV Novembre;_4;;
;7.05206604806402;45.034570767076701;621;;Santa Rita;IT10884200014;_10060;Fenestrelle;01/07/2017;Via Umberto I;_75;;
;7.2448626;44.922758599999987;622;;Depaoli Elena;IT08334870014;_10069;Villar Perosa;01/01/2008;Via Nazionale;_29;;
;7.12216664883698;44.923629744832603;623;;Ghinivert Di Bertone Dott. Domenico;IT09581190015;_10060;Perrero;01/09/2010;Via Monte Nero;_27;;
;7.2226271;44.820482;624;;Internazionale Snc Di Imberti Ernesto E C.;IT09346670012;_10066;Torre Pellice;01/09/2010;Via Arnaud;_14;;
;7.30289;44.82308;625;;Carle Di Carle Dott. Daniela;IT03321690046;_10060;Bricherasio;01/07/2017;Via Vittorio Emanuele II;_83/H;;
;7.23807460516279;44.805873435722603;626;;Savelloni Priotti Paolo;IT09156380017;_10062;Luserna San Giovanni;01/01/2008;Via Fonte Blancio;_12;;
;7.11636335975453;44.807837946547799;627;;Moselli;IT02905140014;_10060;Bobbio Pellice;01/01/2005;Via Maestra;_48;;
;7.2248614;44.82048815;628;;Vasario Del Dott.chambon Davide;IT10627420010;_10062;Luserna San Giovanni;01/07/2017;Via Roma;_19;;
;7.134837126602;44.789283411837502;629;;Allio Della Dott.ssa Allio Arianna;IT11522180014;_10060;Villar Pellice;01/07/2017;Piazza Jervis;_14;;
;7.19579765490528;44.8244209717815;630;;Antica Muston Di Berger Dr.ssa Carla;IT10490940011;_10066;Torre Pellice;01/09/2011;Via Repubblica;_20;;
;7.2887473;44.7994693;631;;Garella;IT08458730010;_10060;Bibiana;01/09/2010;Via Pinerolo;_22;;
;7.3208425;44.8856543;632;;Bert;IT00699790010;_10064;Pinerolo;01/01/2005;Via Cottolengo;_1;;
;7.33332201628011;44.885279161071601;633;;Colognesi Podio Snc Di Colognesi Elena E C.;IT10326530010;_10064;Pinerolo;01/12/2010;Corso Torino;_52;;
;7.4970454;44.8425735;634;;Cerutti Sas Di Rabbia Ludovica & C.;IT11539730017;_10067;Vigone;01/07/2017;Via Umberto I;_22;;
;7.4970454;44.8425735;635;;Gallo Di Forestiero Dr.ssa Veneranda;IT11269850019;_10067;Vigone;01/07/2017;Via Umberto I;_14;;
;7.33332201628011;44.885279161071601;636;;San Lazzaro;IT09310780011;_10064;Pinerolo;01/09/2010;Corso Torino;_196;;
;7.48362830183241;44.921801737167698;637;;Cerchio;IT09253660014;_10060;Airasca;01/01/2008;Via Roma;_125;;
;7.50511;44.7811;638;;Beilis Dei Dott.ri  Beilis D. E Bertorello M.g.snc;IT10768360017;_10068;Villafranca Piemonte;01/07/2017;Via San Francesco D'Assisi;_18;;
;7.30305175191604;44.860427426804399;639;;Mellano Snc Di Lorenzo, Sabrina E Francesco Mellano;IT02734100015;_10060;San Secondo Di Pinerolo;01/01/2005;Via Rol;_16;;
;7.33176;44.88529;640;;Marino Snc Di Foa' Federica & C.;IT09649690014;_10064;Pinerolo;01/11/2007;Piazza Cavour;_10/12;;
;7.333932;44.889518;641;;Musto;IT02984060018;_10064;Pinerolo;01/01/2005;Via Cambiano;_8;;
;7.38448353564164;44.967690492823699;642;;Ruffino;IT05070320014;_10040;Cumiana;01/11/2015;Piazza Martiri 3 Aprile;_42;;
;7.3172741;44.8855934;643;;Bricco;IT05200130010;_10064;Pinerolo;01/01/2005;Strada Fenestrelle;_94;;
;7.35760834332194;44.934254646994702;644;;Lavagno;IT05432330016;_10060;Frossasco;01/01/2005;Via S. Bernardino;_16;;
;7.50343189652975;44.857892010745402;645;;Galenica;IT05562800010;_10060;Cercenasco;01/01/2005;Via Umberto I;_2;;
;7.333118;44.88394;646;;Corti Gosso Snc Dei Dr.i Zallu Fausta E Gosso Giuseppe;IT05653020015;_10064;Pinerolo;01/01/2005;Via C. Lequio;_2;;
;7.42476149210078;44.874375659846599;647;;Zanghirati;IT06689510011;_10060;Buriasco;01/01/2005;Via IV Novembre;_14;;
;7.31259478896741;44.907796277670897;648;;Maria Ausiliatrice Di Tuninetti Luisa E Adamo Snc;IT11080010017;_10060;Cantalupa;01/07/2017;Via Roma;_2;;
;7.32981853155105;44.885786053273797;649;;Balcet Snc Di Paola Rossi, Silvana Forello E Lucia E Domenico Griglio;IT07659160019;_10064;Pinerolo;01/01/2005;Corso Torino;_153;;
;7.37489;44.78572;650;;Azienda Speciale Multiservizi - F. 8;IT07019070015;_10061;Cavour;01/04/2007;Via Roma;_35;;
;7.38905151326667;44.794525379851201;651;;San Lorenzo Snc Dei Dr.i Griglio Lucia E Domenico;IT07875130010;_10061;Cavour;01/01/2005;Via Giovanni Giolitti;_141;;
;7.34798892524763;44.848894354354002;652;;Santa Francesca;IT07964030014;_10060;Osasco;01/07/2015;Via Luigi Camusso;_2;;
;7.5701791;44.8649943;653;;Piumatti;IT07991590014;_10060;Virle Piemonte;01/01/2008;Via Carlo Alberto;_24;;
;7.38448353564164;44.967690492823699;654;;Cavaglia';IT07958730017;_10040;Cumiana;01/11/2007;Strada Torino;_24;;
;7.32714752333123;44.804799836511798;655;;Simondi;IT04973630017;_10060;Campiglione-fenile;01/04/2007;Via Conte di Luserna;_7;;
;7.333118;44.88394;656;;Nuova;IT08022350014;_10064;Pinerolo;01/01/2005;Via Giovanni XXIII;_70;;
;7.31259478896741;44.907796277670897;657;;Sant'albano;IT07984260013;_10060;San Pietro Val Lemina;01/03/2016;Via Roma;_46;;
;7.3326621;44.87723385;658;;San Donato;IT02830220048;_10064;Pinerolo;01/01/2005;Via Saluzzo;_50;;
;7.42653053141707;44.920517679625497;659;;Ceschia;IT08057340013;_10060;Piscina;01/01/2008;Via Umberto I;_60;;
;7.4156615371118;44.849616405690099;660;;Savore' Paola;IT08751240014;_10060;Macello;01/10/2010;Via Piccolatti;_2;;
;7.48729256560459;44.8931755697132;661;;Santa Caterina;IT08175510018;_10060;Scalenghe;01/01/2005;Via Savigliani;_34/a;;
;8.17439792108596;45.201144759031301;662;;Debernardi Micaela;IT02252580028;_13040;Fontanetto Po;01/06/2006;Via Viotti;_14;;
;8.102922;45.191844;663;;Gorrino Giuseppe;IT01639310026;_13044;Crescentino;01/01/2005;Via Mazzini;_67;;
;8.114406637134479;45.2033705805799;664;;Farmacia Centrale Bosso E Franchino - S.n.c.;IT01730440029;_13044;Crescentino;01/07/2017;Via Giuseppe Mazzini;_45;;
;8.027982589761949;45.2358265473082;665;;Eredi Pretti;IT02083360020;_13040;Saluggia;01/03/2013;Via Lusani;_12;;
;8.408534;45.261459;666;;Foglia Enrica;IT02432840029;_13032;Asigliano Vercellese;01/09/2010;Viale Della Vittoria;_5;;
;8.414657;45.319894;667;;Farmacia Ariatta S.r.l.;IT02649790025;_13012;Borgo Vercelli;01/12/2017;Via Tasso;_33;;
;8.05235496377751;45.350221624020598;668;;Amisano Alice Sas Di Bagliani Carlo & C.;IT02527620021;_13100;Vercelli;01/07/2017;Corso Libert?;_239;;
;8.420304870027911;45.321054538245299;669;;Dallari Di Viazzo Antonella;IT02199590023;_13100;Vercelli;01/01/2005;Via Lanza;_7;;
;8.4226662;45.3257562;670;;Giachino Snc;IT02228130023;_13100;Vercelli;01/03/2016;Piazza Cavour;_32;;
;8.420304870027911;45.321054538245299;671;;Cappuccini;IT02103240186;_13100;Vercelli;01/07/2017;Via Thaon di Revel;_48;;
;8.4143845;45.3184155;672;;Parovina Snc;IT02498810023;_13100;Vercelli;01/07/2017;Via Ugo Foscolo;_48;;
;8.420304870027911;45.321054538245299;673;;Comunale 1;IT01928430022;_13100;Vercelli;01/08/2007;Viale Rimembranza;_4;;
;8.420304870027911;45.321054538245299;674;;Comunale 2;IT01928430022;_13100;Vercelli;01/08/2007;Strada Torino;_snc;;
;8.43191910218672;45.325017183227601;675;;Comunale 3;IT01928430022;_13100;Vercelli;01/08/2007;Corso Giacomo Matteotti;_7;;
;8.420304870027911;45.321054538245299;676;;Bagliani Alice Sas Di Bagliani Carlo & C.;IT02527620021;_13100;Vercelli;01/07/2017;Via Restano;_68;;
;8.356976711342149;45.268182085997601;677;;Corradino M.cristina;IT00528450026;_13034;Desana;01/01/2005;Piazza Castello;_5;;
;8.420459887669219;45.265433552222603;678;;Comunale 4;IT01928430022;_13100;Vercelli;01/08/2007;Viale Giuseppe Garibaldi;_90;;
;8.480068;45.2814038;679;;Rava P.luigi;IT01463950020;_13012;Prarolo;01/03/2013;Via Palestro;_14 ter;;
;8.4191643;45.2130177;680;;Nigra Raffaella & C. Sas;IT02173820024;_13030;Rive;01/01/2005;Via IV Novembre;_32;;
;8.45548210320573;45.225707408570898;681;;Franchino Giovanni;IT01578650028;_13010;Stroppiana;01/07/2017;Piazza Libert?;_11;;
;8.42471345431594;45.386965889115302;682;;Pagani Antonella;IT01592310021;_13010;Villata;01/09/2010;Via Vittorio Veneto;_63 bis;;
;8.388798;45.357135;683;;Gallo Snc;IT02605680020;_13030;Caresanablot;01/01/2016;Via Vercelli;_20;;
;8.317527;45.538765;684;;Mattasoglio M.pia;IT01671190021;_13040;Rovasenda;01/01/2008;Piazza Liberta';_9;;
;8.3672336466999;45.557823484382297;685;;Abbagnano A.;IT01697870028;_13035;Lenta;01/07/2015;Via Giudice;_1;;
;8.285660926307941;45.430461625346602;686;;Rollini Renata;IT01698190020;_13030;Formigliana;01/03/2013;S.S. 230;_12/d;;
;8.532110055029349;45.188735233831402;687;;Coppo Piera;IT01718590027;_13010;Motta De' Conti;01/01/2005;Via Marconi;_2;;
;8.507629320747441;45.221621828108702;688;;Costanzo Dr.ssa Ilaria;IT02481990063;_13010;Caresana;01/07/2017;Corso Liberta';_5;;
;8.387476895327151;45.496680853936198;689;;Farmacia Di Arborio Dei Dottori Stefano Cantone E Eleonora Crepaldi Snc;IT02629650025;_13031;Arborio;01/07/2017;Via Cattolana;_2;;
;8.28171815845567;45.251828650321997;690;;San Lorenzo Di Zarino Sara;IT02484880188;_13036;Ronsecco;01/07/2017;Via Roma;_11;;
;8.386229550570709;45.528956469286399;691;;Arosio Michela;IT01439970037;_13030;Ghislarengo;01/01/2005;Piazza Umberto I;_;;
;8.360285679640871;45.270466539391002;692;;Poy Gianna;IT01738040029;_13100;Lignana;01/03/2013;Corso Garibaldi;_68;;
;8.3110257;45.3619852;693;;Di Gregorio Natale;IT-;_13047;Olcenengo;01/01/2005;Piazza Gramsci;_4;;
;8.366423664371011;45.224074521946498;694;;Massetti Dr.ssa Giorgia;IT02512690021;_13033;Costanzana;01/07/2017;Via Castello;_4;;
;8.420304870027911;45.321054538245299;695;;Centrale S.n.c.;IT00168290021;_13100;Vercelli;01/01/2005;Via Lavini;_5;;
;8.420304870027911;45.321054538245299;696;;Belvedere;IT00395790025;_13100;Vercelli;01/01/2005;Via Walter Manzone;_16;;
;8.499111376852699;45.260638393995897;697;;S. Eusebio Della Dr.ssa Garoppo Miranda;IT02230360063;_13010;Pezzana;01/05/2016;Via Matteotti;_91;;
;8.38093;45.426162;698;;Maria Luisa Di Dr.ssa Oppezzo Serena;IT02599860026;_13030;Albano Vercellese;01/07/2017;Via per Villarboit;_17;;
;8.326287;45.497487;699;;Pagliaccino Michela;IT01806590020;_13030;San Giacomo Vercellese;01/09/2010;Piazza Liberta';_3;;
;8.3622211;45.380467900000014;700;;Balmamori Adelina;IT01799960024;_13030;Quinto Vercellese;01/01/2005;Viale Rimembranza;_5;;
;8.4181373;45.32349015;701;;Ravera Snc Di Ravera Paolo E C.;IT02001530027;_13100;Vercelli;01/01/2008;Corso Liberta`;_176;;
;8.05235496377751;45.350221624020598;702;;Garavana Francesco;IT02055390021;_13100;Vercelli;01/01/2005;Corso Liberta`;_78;;
;8.4188455;45.3236513;703;;Moderna Snc;IT02511080026;_13100;Vercelli;01/07/2017;Corso Liberta`;_11;;
;8.075214165465621;45.366312932964;704;;Farmacia Dr. Miglietta;IT02582840027;_13040;Alice Castello;01/03/2018;Via Italia;_11;;
;8.259723811847021;45.355585513932603;705;;Porta Davide;IT02237980020;_13047;San Germano Vercellese;01/06/2006;Via P. Cara;_22;;
;8.19583846391947;45.383117581692801;706;;Prando Di Eredi Dr.prando;IT02320340025;_13048;Santhia';01/03/2013;Corso Nuova Italia;_143;;
;8.174052072629779;45.3424029031545;707;;Grosso Pier Mario;IT00530320027;_13049;Tronzano Vercellese;01/01/2005;Corso Vittorio Emanuele II;_40;;
;8.109176341495269;45.264958310134503;708;;Gallo Massimo;IT01222790022;_13046;Livorno Ferraris;01/01/2005;Piazza Ferraris;_15;;
;8.17271044844111;45.366558979816702;709;;Comunale Anteo Coop Soc.;IT01758780025;_13048;Santhia';01/03/2013;Corso Nuova Italia;_167;;
;8.018680866343971;45.287256482050303;710;;Orillier Lorenzo;IT01296140021;_13043;Cigliano;01/01/2005;Via Salussola;_6;;
;8.17553307164474;45.3423767640842;711;;Casazza Paola;IT01283990024;_13049;Tronzano Vercellese;01/01/2005;Via Lignana;_43;;
;8.121293;45.308227;712;;Costanza G.carlo;IT01425270020;_13041;Bianze';01/01/2005;Piazza S. Eusebio;_12;;
;8.23819243673632;45.319336323381002;713;;Redamante Dr. Simone;IT02484060021;_13040;Crova;01/09/2011;Piazza V. Emanuele II;_15;;
;8.0531713544482;45.3502737286084;714;;Ferretti Anna M.;IT01543400020;_13040;Borgo D'ale;01/01/2005;Via Giacomo Matteotti;_49;;
;8.109176341495269;45.264958310134503;715;;Mezzalama Bianca;IT01786300028;_13046;Livorno Ferraris;01/01/2008;Via Cavour;_33;;
;8.00349476085583;45.328062366564502;716;;S. Rita;IT06381550018;_13040;Moncrivello;01/01/2005;Via Roma;_5;;
;8.20615169183138;45.424874787139203;717;;Barba Enrica;IT-;_13040;Carisio;01/03/2012;Via Gramsci;_9;;
;8.263784271616631;45.484253989097503;718;;Dimitri Marisa Monti S.n.c.;IT01966320028;_13040;Buronzo;01/01/2008;Via Garibaldi;_14;;
;8.28811415;45.7047164;781;;Barreca Snc;IT02099060028;_13011;Borgosesia;01/01/2005;Corso Vercelli;_4;;
;8.145751079761659;45.694879702815498;782;;Tallia Galoppo Sandro;IT00443690029;_13833;Portula;01/10/2010;-;_;;
;8.317772278928651;45.751313507198198;784;;Valmacco Martino;IT01252590029;_13024;Cellio;01/09/2010;Via Vittorio Emanuele II;_5;;
;8.34864251758027;45.728453547273602;785;;Ferretti Paolo;IT01595780022;_13018;Valduggia;01/03/2013;Via G. Ferrari;_46;;
;8.092819108891581;45.7620368735301;786;;Di Scopello;IT02605120027;_13028;Scopello;01/07/2017;Strada Statale;_7/A;;
;8.25760751877581;45.8234048697486;787;;Gino Stefano;IT01714370028;_13019;Varallo;01/01/2005;Piazza A. De Gasperi;_4;;
;8.156805230107169;45.713605528311199;788;;Varola Marco;IT01747160024;_13863;Coggiola;01/01/2005;Via Roma;_108;;
;8.2756322;45.716420199999988;790;;Martelli Piergiorgio & C. Sas;IT01755190020;_13011;Borgosesia;01/05/2008;Piazza Parrocchiale;_16;;
;8.2685697;45.7630147;791;;Ricaldone Dr. Silvio;IT01755520028;_13017;Quarona;01/11/2007;Corso P. Rolandi;_91;;
;8.259729579698311;45.730831693756102;792;;Cerra Laura;IT02553150026;_13011;Borgosesia;01/07/2017;Piazza Mazzini;_36;;
;8.229543;45.714028;793;;Zanellati Flavio;IT01810310027;_13010;Postua;01/01/2008;Via Roma;_11;;
;8.2084523;45.6754052;794;;Erbetta Luisa;IT01831860026;_13867;Pray;01/01/2005;Via B. Sella;_101;;
;8.265180366370121;45.728415457964601;796;;Merlo - Cazzetta Liliana;IT01840190027;_13011;Borgosesia;01/07/2017;Viale Varallo;_150;;
;8.25760751877581;45.8234048697486;797;;Sacro Monte;IT02498140025;_13019;Varallo;01/07/2017;Corso Roma;_22;;
;8.25760751877581;45.8234048697486;798;;Anselmetti Paolo E C. Snc;IT02422610028;_13019;Varallo;01/09/2010;Via Umberto I;_25;;
;8.21164371863131;45.696086771183403;799;;Cazzaniga Dr. Enrica;IT02491140022;_13864;Crevacuore;01/07/2017;Via Giacomo Matteotti;_11;;
;8.357431055939511;45.604271263038598;800;;Cominazzini G.;IT02213160027;_13045;Gattinara;01/01/2005;Corso Giuseppe Garibaldi;_94;;
;8.272221460968749;45.652787059983602;802;;Rabozzi Giovanni;IT01434970024;_13868;Sostegno;01/01/2005;Corso Cesare Alfieri;_41;;
;8.3129559;45.6848211;803;;Passerini Snc Di Passerini Pio & C.;IT02564980023;_13037;Serravalle Sesia;01/07/2017;Corso Giacomo Matteotti;_213;;
;8.357431055939511;45.604271263038598;804;;Domenicone Snc;IT01917150029;_13045;Gattinara;01/01/2008;Piazza Italia;_23;;
;8.2916223;45.5994101;805;;Seva Gabriele;IT01257950020;_13060;Roasio;01/01/2005;Via Torino;_55;;
;8.296753;45.194944;807;;Le Grange Di Luparia Elisa;IT02206900066;_13039;Trino;01/05/2008;Corso Italia;_72;;
;8.26584907728345;45.217671642701902;808;;Dell'ospedale;IT01646520021;_13039;Trino;01/01/2005;Corso Italia;_7;;
;8.232260335725879;45.185812019753101;809;;Palazzolo Di Grasso Anna;IT07266050017;_13040;Palazzolo Vercellese;01/10/2010;Via IV Novembre;_19;;
;8.004666535045541;45.641935906566701;811;;Savino Stefano;IT00448880021;_13811;Andorno Micca;01/01/2005;Via Matteotti;_14;;
;7.99276770996552;45.652310710626502;812;;Valeggia Piera;IT00483880027;_13816;Sagliano Micca;01/01/2005;Via Cappellaro;_39;;
;8.0473438;45.5604558;815;;Del Vernato Snc;IT02247710029;_13900;Biella;01/06/2006;Piazza Cossato;_5;;
;8.110948682421681;45.4474036577205;816;;Farmacia Balestrini S.a.s.;IT01919420024;_13900;Biella;01/03/2018;Via Pietro Micca;_8;;
;8.012600601960649;45.597992119582301;817;;Rosso Giliola;IT02216290029;_13900;Biella;01/09/2010;Via Santuario D'Oropa;_52;;
;8.00706248400421;45.527649532777502;819;;Chimica Di Gallina Renato;IT00354930026;_13888;Mongrando;01/01/2008;Via Monticello;_90;;
;8.1092008491011;45.4439327852091;821;;Gallina Elena;IT02132160025;_13885;Salussola;01/04/2013;Via Mafferia;_15;;
;7.972508;45.574893;822;;Barrera;IT11568440017;_13817;Sordevolo;01/07/2017;Via Bona;_6;;
;8.043378018501461;45.558931017145198;823;;Trabaldo;IT02266260021;_13900;Biella;01/04/2007;Via Ivrea;_63 A;;
;8.020232889591091;45.592374886029802;824;;Azzellino;IT02469050021;_13900;Biella;01/01/2011;Via Rosselli;_104;;
;8.07099929268063;45.4751696370068;825;;Platini Piero;IT01209390028;_13882;Cerrione;01/09/2010;Via Papa Giovanni Ventitreesimo;_85;;
;8.07614155;45.5224153;826;;Pongilupi Raffaella;IT02512120029;_13060;Sandigliano;01/07/2017;Via Antonio Gramsci;_36;;
;8.020232889591091;45.592374886029802;827;;Bassotto M.a.;IT01464310026;_13900;Biella;01/01/2005;Via Carlo Antonio Coda;_2;;
;8.052938275502999;45.571286563162602;828;;Del Centro Snc;IT01571160025;_13900;Biella;01/04/2013;Via Italia;_23;;
;8.045745806644391;45.621011782882;829;;Pozzi Federico;IT02267700025;_13818;Tollegno;01/04/2007;Via Roma;_4;;
;8.06461323688759;45.556087555514203;830;;Caccia Eugenio;IT01669620021;_13845;Ronco Biellese;01/04/2013;Via per Zumaglia;_2;;
;8.052938275502999;45.571286563162602;831;;Farmacia Santo Stefano Della Dr.ssa Primon Stefania;IT02609000027;_13900;Biella;01/07/2017;Piazza Martiri Della Libert?;_6;;
;7.945763;45.538892;832;;Bottasso Mirella;IT01737670024;_13896;Netro;01/01/2005;Via Roma;_2/a;;
;8.052616372629601;45.5633644231483;833;;Bardari L.;IT01747680021;_13875;Ponderano;01/01/2005;Via Giuseppe Mazzini;_50;;
;8.0110421;45.6567874;834;;Marzia Angelo;IT01739150025;_13812;Campiglia Cervo;01/07/2017;Via Caduti Libert?;_22;;
;8.064484296648819;45.550383316882701;835;;Masarone;IT01747920021;_13900;Biella;01/01/2005;Strada al Lanificio;_7/B;;
;8.110873046490219;45.543470196933697;836;;Robiolio Piercarlo & C. Sas;IT01771590021;_13878;Candelo;01/07/2017;Corso Libert?;_100;;
;8.008251383199029;45.489972881057497;837;;Sant'andrea;IT01837110020;_13888;Zubiena;01/04/2013;Via Casale Filippi;_8;;
;8.0376066;45.5908804;838;;Amadori Stefano;IT01683800021;_13899;Pralungo;01/01/2005;Via Serratrice;_9;;
;8.0543766;45.561988799999988;839;;Ferraris Giovanni;IT01216850022;_13814;Pollone;01/07/2017;Via Vittorio Veneto;_4;;
;8.0583206;45.5626626;840;;San Paolo Rolly Snc;IT02336870023;_13900;Biella;01/01/2008;Via Torino;_59;;
;8.020232889591091;45.592374886029802;841;;Salucci Maria Pia;IT01808580029;_13842;Biella;01/04/2013;Via A. Ogliaro;_37;;
;8.052938275502999;45.571286563162602;842;;Servo E C. S.n.c.;IT01808010027;_13900;Biella;01/01/2005;Via Italia;_11;;
;8.0073334;45.5635504;843;;Superiore Di Baragiotta F. E Marmo N. Snc;IT02337690024;_13898;Occhieppo Superiore;01/01/2008;Piazza Maffeo Luigi;_11;;
;8.0072998;45.5202033;844;;Centrale S.n.c.;IT01851360022;_13888;Mongrando;01/10/2014;Via Roma;_27;;
;8.070186971974159;45.544202128581503;845;;Pisani Pietro Dei Dr.i Maria Grazia E Vittorio Pisani Snc;IT02132300027;_13894;Gaglianico;01/01/2005;Via Antonio Gramsci;_63;;
;8.020232889591091;45.592374886029802;846;;Dott.ri Domenicone Sas;IT02496770021;_13900;Biella;01/07/2017;Piazza XXV Aprile;_13a;;
;8.1249519;45.510391299999988;847;;Spagnolo Marco;IT01943560027;_13871;Benna;01/09/2010;Via IV Novembre;_7;;
;8.05283502174237;45.567705986273303;848;;San Filippo Snc;IT01947040026;_13900;Biella;01/08/2016;Via San Filippo;_2;;
;8.020240423756229;45.555559564939799;849;;Toso Pier Giorgio & C. Sas;IT01965710021;_13897;Occhieppo Inferiore;01/09/2010;Via Repubblica;_6;;
;7.90823861191239;45.542499826526999;850;;Faraci Tiziana;IT01997660020;_13893;Donato;01/01/2008;Via Martiri della Liberta`;_31;;
;8.0452755;45.5614168;851;;Marinoni Manuela;IT02001130026;_13900;Biella;01/01/2005;Via Rocchetta;_1/a - 1/b;;
;8.0931568;45.403754;852;;Biondi Antonella;IT02399950027;_13881;Cavaglia';01/09/2010;Via Vercellone;_58;;
;8.051605;45.422755;853;;Ruffino;IT02044530026;_13886;Viverone;01/01/2005;Via Provinciale;_46;;
;7.93882015599203;45.571544435000398;854;;Tonino Giulia;IT08549100017;_13895;Graglia;01/01/2005;Piazza G. Crida;_3/a;;
;8.107783;45.614225;855;;Del Conte Marco;IT00467810024;_13841;Bioglio;01/01/2005;Via Vittorio Emanuele II;_2;;
;8.185866426430721;45.572021544238702;856;;Friolotto Snc Di Friolotto Eusebio & C.;IT02227880024;_13836;Cossato;01/09/2010;Via Giuseppe Garibaldi;_61;;
;8.17169582158008;45.623122479767197;858;;Bellucci Ales.;IT00117220020;_13823;Strona;01/01/2005;Via Ozzino;_30;;
;8.10028835098497;45.658723367285901;859;;Corbellini;IT00238810022;_13825;Valle Mosso;01/01/2005;Frazione Falcero;_43/A;;
;8.142313;45.604203;860;;Dolcino Alberto;IT01729480028;_13847;Valle San Nicolao;01/01/2005;Via Chiesa;_29;;
;8.10028835098497;45.658723367285901;862;;Clivati Graziano;IT01404790022;_13825;Valle Mosso;01/01/2005;Via Avie`;_75;;
